{
"type": "FeatureCollection",
"features": [
{ "type": "Feature", "properties": { "Codes": "s0000001", "English Names": "Athabasca", "Province Codes": "AB", "Latitude": 54.720000, "Longitude": -113.280000 }, "geometry": { "type": "Point", "coordinates": [ -113.280000, 54.720000 ] } }
,
{ "type": "Feature", "properties": { "Codes": "s0000002", "English Names": "Clearwater", "Province Codes": "BC", "Latitude": 51.650000, "Longitude": -120.030000 }, "geometry": { "type": "Point", "coordinates": [ -120.030000, 51.650000 ] } }
,
{ "type": "Feature", "properties": { "Codes": "s0000003", "English Names": "Valemount", "Province Codes": "BC", "Latitude": 52.830000, "Longitude": -119.250000 }, "geometry": { "type": "Point", "coordinates": [ -119.250000, 52.830000 ] } }
,
{ "type": "Feature", "properties": { "Codes": "s0000004", "English Names": "Grand Forks", "Province Codes": "BC", "Latitude": 49.030000, "Longitude": -118.430000 }, "geometry": { "type": "Point", "coordinates": [ -118.430000, 49.030000 ] } }
,
{ "type": "Feature", "properties": { "Codes": "s0000005", "English Names": "McBride", "Province Codes": "BC", "Latitude": 53.300000, "Longitude": -120.170000 }, "geometry": { "type": "Point", "coordinates": [ -120.170000, 53.300000 ] } }
,
{ "type": "Feature", "properties": { "Codes": "s0000006", "English Names": "Merritt", "Province Codes": "BC", "Latitude": 50.110000, "Longitude": -120.790000 }, "geometry": { "type": "Point", "coordinates": [ -120.790000, 50.110000 ] } }
,
{ "type": "Feature", "properties": { "Codes": "s0000007", "English Names": "Masset", "Province Codes": "BC", "Latitude": 54.020000, "Longitude": -132.100000 }, "geometry": { "type": "Point", "coordinates": [ -132.100000, 54.020000 ] } }
,
{ "type": "Feature", "properties": { "Codes": "s0000008", "English Names": "Invermere", "Province Codes": "BC", "Latitude": 50.520000, "Longitude": -116.030000 }, "geometry": { "type": "Point", "coordinates": [ -116.030000, 50.520000 ] } }
,
{ "type": "Feature", "properties": { "Codes": "s0000009", "English Names": "Dome Creek", "Province Codes": "BC", "Latitude": 53.750000, "Longitude": -121.030000 }, "geometry": { "type": "Point", "coordinates": [ -121.030000, 53.750000 ] } }
,
{ "type": "Feature", "properties": { "Codes": "s0000010", "English Names": "Little Grand Rapids", "Province Codes": "MB", "Latitude": 52.040000, "Longitude": -95.460000 }, "geometry": { "type": "Point", "coordinates": [ -95.460000, 52.040000 ] } }
,
{ "type": "Feature", "properties": { "Codes": "s0000011", "English Names": "Oxford House", "Province Codes": "MB", "Latitude": 54.950000, "Longitude": -95.270000 }, "geometry": { "type": "Point", "coordinates": [ -95.270000, 54.950000 ] } }
,
{ "type": "Feature", "properties": { "Codes": "s0000012", "English Names": "Bissett", "Province Codes": "MB", "Latitude": 51.030000, "Longitude": -95.680000 }, "geometry": { "type": "Point", "coordinates": [ -95.680000, 51.030000 ] } }
,
{ "type": "Feature", "properties": { "Codes": "s0000013", "English Names": "Shamattawa", "Province Codes": "MB", "Latitude": 55.850000, "Longitude": -92.090000 }, "geometry": { "type": "Point", "coordinates": [ -92.090000, 55.850000 ] } }
,
{ "type": "Feature", "properties": { "Codes": "s0000014", "English Names": "York Factory", "Province Codes": "MB", "Latitude": 57.000000, "Longitude": -92.310000 }, "geometry": { "type": "Point", "coordinates": [ -92.310000, 57.000000 ] } }
,
{ "type": "Feature", "properties": { "Codes": "s0000015", "English Names": "Flin Flon", "Province Codes": "MB", "Latitude": 54.770000, "Longitude": -101.860000 }, "geometry": { "type": "Point", "coordinates": [ -101.860000, 54.770000 ] } }
,
{ "type": "Feature", "properties": { "Codes": "s0000016", "English Names": "Musgrave Harbour", "Province Codes": "NL", "Latitude": 49.450000, "Longitude": -53.970000 }, "geometry": { "type": "Point", "coordinates": [ -53.970000, 49.450000 ] } }
,
{ "type": "Feature", "properties": { "Codes": "s0000017", "English Names": "New-Wes-Valley", "Province Codes": "NL", "Latitude": 49.170000, "Longitude": -53.570000 }, "geometry": { "type": "Point", "coordinates": [ -53.570000, 49.170000 ] } }
,
{ "type": "Feature", "properties": { "Codes": "s0000018", "English Names": "Bay Roberts", "Province Codes": "NL", "Latitude": 47.600000, "Longitude": -53.270000 }, "geometry": { "type": "Point", "coordinates": [ -53.270000, 47.600000 ] } }
,
{ "type": "Feature", "properties": { "Codes": "s0000019", "English Names": "St. Alban's", "Province Codes": "NL", "Latitude": 47.880000, "Longitude": -55.850000 }, "geometry": { "type": "Point", "coordinates": [ -55.850000, 47.880000 ] } }
,
{ "type": "Feature", "properties": { "Codes": "s0000020", "English Names": "Fourchu Head", "Province Codes": "NS", "Latitude": 45.720000, "Longitude": -60.230000 }, "geometry": { "type": "Point", "coordinates": [ -60.230000, 45.720000 ] } }
,
{ "type": "Feature", "properties": { "Codes": "s0000021", "English Names": "North Mountain (Cape Breton)", "Province Codes": "NS", "Latitude": 46.880000, "Longitude": -60.580000 }, "geometry": { "type": "Point", "coordinates": [ -60.580000, 46.880000 ] } }
,
{ "type": "Feature", "properties": { "Codes": "s0000022", "English Names": "Marathon", "Province Codes": "ON", "Latitude": 48.720000, "Longitude": -86.380000 }, "geometry": { "type": "Point", "coordinates": [ -86.380000, 48.720000 ] } }
,
{ "type": "Feature", "properties": { "Codes": "s0000023", "English Names": "Terrace Bay", "Province Codes": "ON", "Latitude": 48.800000, "Longitude": -87.100000 }, "geometry": { "type": "Point", "coordinates": [ -87.100000, 48.800000 ] } }
,
{ "type": "Feature", "properties": { "Codes": "s0000024", "English Names": "Attawapiskat", "Province Codes": "ON", "Latitude": 52.920000, "Longitude": -82.430000 }, "geometry": { "type": "Point", "coordinates": [ -82.430000, 52.920000 ] } }
,
{ "type": "Feature", "properties": { "Codes": "s0000025", "English Names": "Gogama", "Province Codes": "ON", "Latitude": 47.670000, "Longitude": -81.730000 }, "geometry": { "type": "Point", "coordinates": [ -81.730000, 47.670000 ] } }
,
{ "type": "Feature", "properties": { "Codes": "s0000026", "English Names": "Maple Plains", "Province Codes": "PE", "Latitude": 46.280000, "Longitude": -63.570000 }, "geometry": { "type": "Point", "coordinates": [ -63.570000, 46.280000 ] } }
,
{ "type": "Feature", "properties": { "Codes": "s0000027", "English Names": "Murdochville", "Province Codes": "QC", "Latitude": 48.970000, "Longitude": -65.500000 }, "geometry": { "type": "Point", "coordinates": [ -65.500000, 48.970000 ] } }
,
{ "type": "Feature", "properties": { "Codes": "s0000028", "English Names": "Escoumins", "Province Codes": "QC", "Latitude": 48.420000, "Longitude": -69.420000 }, "geometry": { "type": "Point", "coordinates": [ -69.420000, 48.420000 ] } }
,
{ "type": "Feature", "properties": { "Codes": "s0000029", "English Names": "Saint-Michel-des-Saints", "Province Codes": "QC", "Latitude": 46.680000, "Longitude": -73.920000 }, "geometry": { "type": "Point", "coordinates": [ -73.920000, 46.680000 ] } }
,
{ "type": "Feature", "properties": { "Codes": "s0000030", "English Names": "Rancheria", "Province Codes": "YT", "Latitude": 60.090000, "Longitude": -130.600000 }, "geometry": { "type": "Point", "coordinates": [ -130.600000, 60.090000 ] } }
,
{ "type": "Feature", "properties": { "Codes": "s0000031", "English Names": "Dempster (Highway)", "Province Codes": "YT", "Latitude": 66.160000, "Longitude": -137.150000 }, "geometry": { "type": "Point", "coordinates": [ -137.150000, 66.160000 ] } }
,
{ "type": "Feature", "properties": { "Codes": "s0000032", "English Names": "Burgeo", "Province Codes": "NL", "Latitude": 47.610000, "Longitude": -57.620000 }, "geometry": { "type": "Point", "coordinates": [ -57.620000, 47.610000 ] } }
,
{ "type": "Feature", "properties": { "Codes": "s0000033", "English Names": "Bouctouche", "Province Codes": "NB", "Latitude": 46.470000, "Longitude": -64.740000 }, "geometry": { "type": "Point", "coordinates": [ -64.740000, 46.470000 ] } }
,
{ "type": "Feature", "properties": { "Codes": "s0000034", "English Names": "Richibucto", "Province Codes": "NB", "Latitude": 46.680000, "Longitude": -64.880000 }, "geometry": { "type": "Point", "coordinates": [ -64.880000, 46.680000 ] } }
,
{ "type": "Feature", "properties": { "Codes": "s0000035", "English Names": "Rogersville", "Province Codes": "NB", "Latitude": 46.750000, "Longitude": -65.500000 }, "geometry": { "type": "Point", "coordinates": [ -65.500000, 46.750000 ] } }
,
{ "type": "Feature", "properties": { "Codes": "s0000036", "English Names": "Miramichi", "Province Codes": "NB", "Latitude": 47.000000, "Longitude": -65.470000 }, "geometry": { "type": "Point", "coordinates": [ -65.470000, 47.000000 ] } }
,
{ "type": "Feature", "properties": { "Codes": "s0000037", "English Names": "Point Escuminac", "Province Codes": "NB", "Latitude": 47.070000, "Longitude": -64.800000 }, "geometry": { "type": "Point", "coordinates": [ -64.800000, 47.070000 ] } }
,
{ "type": "Feature", "properties": { "Codes": "s0000038", "English Names": "Kouchibouguac", "Province Codes": "NB", "Latitude": 46.860000, "Longitude": -64.980000 }, "geometry": { "type": "Point", "coordinates": [ -64.980000, 46.860000 ] } }
,
{ "type": "Feature", "properties": { "Codes": "s0000039", "English Names": "St. Lawrence", "Province Codes": "NL", "Latitude": 46.920000, "Longitude": -55.400000 }, "geometry": { "type": "Point", "coordinates": [ -55.400000, 46.920000 ] } }
,
{ "type": "Feature", "properties": { "Codes": "s0000040", "English Names": "Parrsboro", "Province Codes": "NS", "Latitude": 45.410000, "Longitude": -64.330000 }, "geometry": { "type": "Point", "coordinates": [ -64.330000, 45.410000 ] } }
,
{ "type": "Feature", "properties": { "Codes": "s0000041", "English Names": "Bonavista", "Province Codes": "NL", "Latitude": 48.650000, "Longitude": -53.110000 }, "geometry": { "type": "Point", "coordinates": [ -53.110000, 48.650000 ] } }
,
{ "type": "Feature", "properties": { "Codes": "s0000042", "English Names": "Wreckhouse", "Province Codes": "NL", "Latitude": 47.710000, "Longitude": -59.310000 }, "geometry": { "type": "Point", "coordinates": [ -59.310000, 47.710000 ] } }
,
{ "type": "Feature", "properties": { "Codes": "s0000043", "English Names": "Edmundston", "Province Codes": "NB", "Latitude": 47.380000, "Longitude": -68.290000 }, "geometry": { "type": "Point", "coordinates": [ -68.290000, 47.380000 ] } }
,
{ "type": "Feature", "properties": { "Codes": "s0000044", "English Names": "Beauharnois", "Province Codes": "QC", "Latitude": 45.320000, "Longitude": -73.870000 }, "geometry": { "type": "Point", "coordinates": [ -73.870000, 45.320000 ] } }
,
{ "type": "Feature", "properties": { "Codes": "s0000045", "English Names": "Edmonton", "Province Codes": "AB", "Latitude": 53.530000, "Longitude": -113.490000 }, "geometry": { "type": "Point", "coordinates": [ -113.490000, 53.530000 ] } }
,
{ "type": "Feature", "properties": { "Codes": "s0000046", "English Names": "Candiac", "Province Codes": "QC", "Latitude": 45.380000, "Longitude": -73.520000 }, "geometry": { "type": "Point", "coordinates": [ -73.520000, 45.380000 ] } }
,
{ "type": "Feature", "properties": { "Codes": "s0000047", "English Names": "Calgary", "Province Codes": "AB", "Latitude": 51.050000, "Longitude": -114.060000 }, "geometry": { "type": "Point", "coordinates": [ -114.060000, 51.050000 ] } }
,
{ "type": "Feature", "properties": { "Codes": "s0000048", "English Names": "La Prairie", "Province Codes": "QC", "Latitude": 45.420000, "Longitude": -73.500000 }, "geometry": { "type": "Point", "coordinates": [ -73.500000, 45.420000 ] } }
,
{ "type": "Feature", "properties": { "Codes": "s0000049", "English Names": "Saint-Constant", "Province Codes": "QC", "Latitude": 45.370000, "Longitude": -73.570000 }, "geometry": { "type": "Point", "coordinates": [ -73.570000, 45.370000 ] } }
,
{ "type": "Feature", "properties": { "Codes": "s0000050", "English Names": "Sainte-Catherine", "Province Codes": "QC", "Latitude": 45.400000, "Longitude": -73.580000 }, "geometry": { "type": "Point", "coordinates": [ -73.580000, 45.400000 ] } }
,
{ "type": "Feature", "properties": { "Codes": "s0000051", "English Names": "Saint-Rémi", "Province Codes": "QC", "Latitude": 45.270000, "Longitude": -73.620000 }, "geometry": { "type": "Point", "coordinates": [ -73.620000, 45.270000 ] } }
,
{ "type": "Feature", "properties": { "Codes": "s0000052", "English Names": "Granby", "Province Codes": "QC", "Latitude": 45.400000, "Longitude": -72.730000 }, "geometry": { "type": "Point", "coordinates": [ -72.730000, 45.400000 ] } }
,
{ "type": "Feature", "properties": { "Codes": "s0000053", "English Names": "Cowansville", "Province Codes": "QC", "Latitude": 45.200000, "Longitude": -72.750000 }, "geometry": { "type": "Point", "coordinates": [ -72.750000, 45.200000 ] } }
,
{ "type": "Feature", "properties": { "Codes": "s0000054", "English Names": "Victoriaville", "Province Codes": "QC", "Latitude": 46.050000, "Longitude": -71.970000 }, "geometry": { "type": "Point", "coordinates": [ -71.970000, 46.050000 ] } }
,
{ "type": "Feature", "properties": { "Codes": "s0000055", "English Names": "Prévost", "Province Codes": "QC", "Latitude": 45.870000, "Longitude": -74.080000 }, "geometry": { "type": "Point", "coordinates": [ -74.080000, 45.870000 ] } }
,
{ "type": "Feature", "properties": { "Codes": "s0000056", "English Names": "Sainte-Sophie", "Province Codes": "QC", "Latitude": 45.820000, "Longitude": -73.900000 }, "geometry": { "type": "Point", "coordinates": [ -73.900000, 45.820000 ] } }
,
{ "type": "Feature", "properties": { "Codes": "s0000057", "English Names": "Saint-Lin-Laurentides", "Province Codes": "QC", "Latitude": 45.850000, "Longitude": -73.770000 }, "geometry": { "type": "Point", "coordinates": [ -73.770000, 45.850000 ] } }
,
{ "type": "Feature", "properties": { "Codes": "s0000058", "English Names": "Saint-Sauveur", "Province Codes": "QC", "Latitude": 45.900000, "Longitude": -74.170000 }, "geometry": { "type": "Point", "coordinates": [ -74.170000, 45.900000 ] } }
,
{ "type": "Feature", "properties": { "Codes": "s0000059", "English Names": "Saint-Hyacinthe", "Province Codes": "QC", "Latitude": 45.620000, "Longitude": -72.950000 }, "geometry": { "type": "Point", "coordinates": [ -72.950000, 45.620000 ] } }
,
{ "type": "Feature", "properties": { "Codes": "s0000060", "English Names": "Marieville", "Province Codes": "QC", "Latitude": 45.430000, "Longitude": -73.170000 }, "geometry": { "type": "Point", "coordinates": [ -73.170000, 45.430000 ] } }
,
{ "type": "Feature", "properties": { "Codes": "s0000061", "English Names": "Rigaud", "Province Codes": "QC", "Latitude": 45.480000, "Longitude": -74.300000 }, "geometry": { "type": "Point", "coordinates": [ -74.300000, 45.480000 ] } }
,
{ "type": "Feature", "properties": { "Codes": "s0000062", "English Names": "Saint-Lazare", "Province Codes": "QC", "Latitude": 45.400000, "Longitude": -74.130000 }, "geometry": { "type": "Point", "coordinates": [ -74.130000, 45.400000 ] } }
,
{ "type": "Feature", "properties": { "Codes": "s0000063", "English Names": "Farnham", "Province Codes": "QC", "Latitude": 45.280000, "Longitude": -72.980000 }, "geometry": { "type": "Point", "coordinates": [ -72.980000, 45.280000 ] } }
,
{ "type": "Feature", "properties": { "Codes": "s0000064", "English Names": "Thetford Mines", "Province Codes": "QC", "Latitude": 46.100000, "Longitude": -71.300000 }, "geometry": { "type": "Point", "coordinates": [ -71.300000, 46.100000 ] } }
,
{ "type": "Feature", "properties": { "Codes": "s0000065", "English Names": "Kugaaruk", "Province Codes": "NU", "Latitude": 68.530000, "Longitude": -89.830000 }, "geometry": { "type": "Point", "coordinates": [ -89.830000, 68.530000 ] } }
,
{ "type": "Feature", "properties": { "Codes": "s0000066", "English Names": "Highvale", "Province Codes": "AB", "Latitude": 53.450000, "Longitude": -114.520000 }, "geometry": { "type": "Point", "coordinates": [ -114.520000, 53.450000 ] } }
,
{ "type": "Feature", "properties": { "Codes": "s0000067", "English Names": "Pelican Narrows", "Province Codes": "SK", "Latitude": 55.190000, "Longitude": -102.930000 }, "geometry": { "type": "Point", "coordinates": [ -102.930000, 55.190000 ] } }
,
{ "type": "Feature", "properties": { "Codes": "s0000068", "English Names": "Strathmore", "Province Codes": "AB", "Latitude": 51.050000, "Longitude": -113.390000 }, "geometry": { "type": "Point", "coordinates": [ -113.390000, 51.050000 ] } }
,
{ "type": "Feature", "properties": { "Codes": "s0000069", "English Names": "Hawkesbury", "Province Codes": "ON", "Latitude": 45.610000, "Longitude": -74.600000 }, "geometry": { "type": "Point", "coordinates": [ -74.600000, 45.610000 ] } }
,
{ "type": "Feature", "properties": { "Codes": "s0000070", "English Names": "Alexandria", "Province Codes": "ON", "Latitude": 45.310000, "Longitude": -74.630000 }, "geometry": { "type": "Point", "coordinates": [ -74.630000, 45.310000 ] } }
,
{ "type": "Feature", "properties": { "Codes": "s0000071", "English Names": "Cornwall", "Province Codes": "ON", "Latitude": 45.030000, "Longitude": -74.730000 }, "geometry": { "type": "Point", "coordinates": [ -74.730000, 45.030000 ] } }
,
{ "type": "Feature", "properties": { "Codes": "s0000072", "English Names": "Morrisburg", "Province Codes": "ON", "Latitude": 44.900000, "Longitude": -75.180000 }, "geometry": { "type": "Point", "coordinates": [ -75.180000, 44.900000 ] } }
,
{ "type": "Feature", "properties": { "Codes": "s0000073", "English Names": "Algonquin Park (Brent)", "Province Codes": "ON", "Latitude": 46.030000, "Longitude": -78.480000 }, "geometry": { "type": "Point", "coordinates": [ -78.480000, 46.030000 ] } }
,
{ "type": "Feature", "properties": { "Codes": "s0000074", "English Names": "Algonquin Park (Lake of Two Rivers)", "Province Codes": "ON", "Latitude": 45.580000, "Longitude": -78.480000 }, "geometry": { "type": "Point", "coordinates": [ -78.480000, 45.580000 ] } }
,
{ "type": "Feature", "properties": { "Codes": "s0000075", "English Names": "Oxtongue Lake", "Province Codes": "ON", "Latitude": 45.360000, "Longitude": -78.920000 }, "geometry": { "type": "Point", "coordinates": [ -78.920000, 45.360000 ] } }
,
{ "type": "Feature", "properties": { "Codes": "s0000076", "English Names": "Welland", "Province Codes": "ON", "Latitude": 43.000000, "Longitude": -79.230000 }, "geometry": { "type": "Point", "coordinates": [ -79.230000, 43.000000 ] } }
,
{ "type": "Feature", "properties": { "Codes": "s0000077", "English Names": "Winchester", "Province Codes": "ON", "Latitude": 45.090000, "Longitude": -75.350000 }, "geometry": { "type": "Point", "coordinates": [ -75.350000, 45.090000 ] } }
,
{ "type": "Feature", "properties": { "Codes": "s0000078", "English Names": "Whistler", "Province Codes": "BC", "Latitude": 50.120000, "Longitude": -122.970000 }, "geometry": { "type": "Point", "coordinates": [ -122.970000, 50.120000 ] } }
,
{ "type": "Feature", "properties": { "Codes": "s0000079", "English Names": "La Scie", "Province Codes": "NL", "Latitude": 49.960000, "Longitude": -55.590000 }, "geometry": { "type": "Point", "coordinates": [ -55.590000, 49.960000 ] } }
,
{ "type": "Feature", "properties": { "Codes": "s0000080", "English Names": "Rondeau (Provincial Park)", "Province Codes": "ON", "Latitude": 42.300000, "Longitude": -81.890000 }, "geometry": { "type": "Point", "coordinates": [ -81.890000, 42.300000 ] } }
,
{ "type": "Feature", "properties": { "Codes": "s0000081", "English Names": "Coronach", "Province Codes": "SK", "Latitude": 49.110000, "Longitude": -105.510000 }, "geometry": { "type": "Point", "coordinates": [ -105.510000, 49.110000 ] } }
,
{ "type": "Feature", "properties": { "Codes": "s0000082", "English Names": "Placentia", "Province Codes": "NL", "Latitude": 47.300000, "Longitude": -53.990000 }, "geometry": { "type": "Point", "coordinates": [ -53.990000, 47.300000 ] } }
,
{ "type": "Feature", "properties": { "Codes": "s0000083", "English Names": "Sundre", "Province Codes": "AB", "Latitude": 51.800000, "Longitude": -114.640000 }, "geometry": { "type": "Point", "coordinates": [ -114.640000, 51.800000 ] } }
,
{ "type": "Feature", "properties": { "Codes": "s0000084", "English Names": "Halifax (Shearwater)", "Province Codes": "NS", "Latitude": 44.660000, "Longitude": -63.590000 }, "geometry": { "type": "Point", "coordinates": [ -63.590000, 44.660000 ] } }
,
{ "type": "Feature", "properties": { "Codes": "s0000085", "English Names": "Témiscamingue", "Province Codes": "QC", "Latitude": 47.550000, "Longitude": -79.230000 }, "geometry": { "type": "Point", "coordinates": [ -79.230000, 47.550000 ] } }
,
{ "type": "Feature", "properties": { "Codes": "s0000086", "English Names": "Indian Head", "Province Codes": "SK", "Latitude": 50.530000, "Longitude": -103.670000 }, "geometry": { "type": "Point", "coordinates": [ -103.670000, 50.530000 ] } }
,
{ "type": "Feature", "properties": { "Codes": "s0000087", "English Names": "Fort Qu'Appelle", "Province Codes": "SK", "Latitude": 50.770000, "Longitude": -103.790000 }, "geometry": { "type": "Point", "coordinates": [ -103.790000, 50.770000 ] } }
,
{ "type": "Feature", "properties": { "Codes": "s0000088", "English Names": "Killarney", "Province Codes": "ON", "Latitude": 46.060000, "Longitude": -80.980000 }, "geometry": { "type": "Point", "coordinates": [ -80.980000, 46.060000 ] } }
,
{ "type": "Feature", "properties": { "Codes": "s0000089", "English Names": "New Glasgow", "Province Codes": "NS", "Latitude": 45.590000, "Longitude": -62.640000 }, "geometry": { "type": "Point", "coordinates": [ -62.640000, 45.590000 ] } }
,
{ "type": "Feature", "properties": { "Codes": "s0000090", "English Names": "Caribou", "Province Codes": "NS", "Latitude": 45.730000, "Longitude": -62.720000 }, "geometry": { "type": "Point", "coordinates": [ -62.720000, 45.730000 ] } }
,
{ "type": "Feature", "properties": { "Codes": "s0000091", "English Names": "Bachelors Island", "Province Codes": "MB", "Latitude": 51.750000, "Longitude": -99.900000 }, "geometry": { "type": "Point", "coordinates": [ -99.900000, 51.750000 ] } }
,
{ "type": "Feature", "properties": { "Codes": "s0000092", "English Names": "Beaverlodge", "Province Codes": "AB", "Latitude": 55.210000, "Longitude": -119.430000 }, "geometry": { "type": "Point", "coordinates": [ -119.430000, 55.210000 ] } }
,
{ "type": "Feature", "properties": { "Codes": "s0000093", "English Names": "Brooks", "Province Codes": "AB", "Latitude": 50.570000, "Longitude": -111.900000 }, "geometry": { "type": "Point", "coordinates": [ -111.900000, 50.570000 ] } }
,
{ "type": "Feature", "properties": { "Codes": "s0000094", "English Names": "Mingan", "Province Codes": "QC", "Latitude": 50.300000, "Longitude": -64.030000 }, "geometry": { "type": "Point", "coordinates": [ -64.030000, 50.300000 ] } }
,
{ "type": "Feature", "properties": { "Codes": "s0000095", "English Names": "Nipawin", "Province Codes": "SK", "Latitude": 53.360000, "Longitude": -104.020000 }, "geometry": { "type": "Point", "coordinates": [ -104.020000, 53.360000 ] } }
,
{ "type": "Feature", "properties": { "Codes": "s0000096", "English Names": "Beaver Island", "Province Codes": "NS", "Latitude": 44.750000, "Longitude": -62.800000 }, "geometry": { "type": "Point", "coordinates": [ -62.800000, 44.750000 ] } }
,
{ "type": "Feature", "properties": { "Codes": "s0000097", "English Names": "Port-Menier", "Province Codes": "QC", "Latitude": 49.820000, "Longitude": -64.350000 }, "geometry": { "type": "Point", "coordinates": [ -64.350000, 49.820000 ] } }
,
{ "type": "Feature", "properties": { "Codes": "s0000098", "English Names": "Salaberry-de-Valleyfield", "Province Codes": "QC", "Latitude": 45.250000, "Longitude": -74.130000 }, "geometry": { "type": "Point", "coordinates": [ -74.130000, 45.250000 ] } }
,
{ "type": "Feature", "properties": { "Codes": "s0000099", "English Names": "Huntingdon", "Province Codes": "QC", "Latitude": 45.080000, "Longitude": -74.170000 }, "geometry": { "type": "Point", "coordinates": [ -74.170000, 45.080000 ] } }
,
{ "type": "Feature", "properties": { "Codes": "s0000100", "English Names": "Cartwright", "Province Codes": "NL", "Latitude": 53.710000, "Longitude": -57.010000 }, "geometry": { "type": "Point", "coordinates": [ -57.010000, 53.710000 ] } }
,
{ "type": "Feature", "properties": { "Codes": "s0000101", "English Names": "Bloodvein", "Province Codes": "MB", "Latitude": 51.790000, "Longitude": -96.710000 }, "geometry": { "type": "Point", "coordinates": [ -96.710000, 51.790000 ] } }
,
{ "type": "Feature", "properties": { "Codes": "s0000102", "English Names": "Berens River", "Province Codes": "MB", "Latitude": 52.370000, "Longitude": -97.030000 }, "geometry": { "type": "Point", "coordinates": [ -97.030000, 52.370000 ] } }
,
{ "type": "Feature", "properties": { "Codes": "s0000103", "English Names": "Atikokan", "Province Codes": "ON", "Latitude": 48.760000, "Longitude": -91.610000 }, "geometry": { "type": "Point", "coordinates": [ -91.610000, 48.760000 ] } }
,
{ "type": "Feature", "properties": { "Codes": "s0000104", "English Names": "Fort Frances", "Province Codes": "ON", "Latitude": 48.610000, "Longitude": -93.390000 }, "geometry": { "type": "Point", "coordinates": [ -93.390000, 48.610000 ] } }
,
{ "type": "Feature", "properties": { "Codes": "s0000105", "English Names": "Mine Centre", "Province Codes": "ON", "Latitude": 48.770000, "Longitude": -92.620000 }, "geometry": { "type": "Point", "coordinates": [ -92.620000, 48.770000 ] } }
,
{ "type": "Feature", "properties": { "Codes": "s0000106", "English Names": "100 Mile House", "Province Codes": "BC", "Latitude": 51.650000, "Longitude": -121.280000 }, "geometry": { "type": "Point", "coordinates": [ -121.280000, 51.650000 ] } }
,
{ "type": "Feature", "properties": { "Codes": "s0000107", "English Names": "Clinton", "Province Codes": "BC", "Latitude": 51.080000, "Longitude": -121.580000 }, "geometry": { "type": "Point", "coordinates": [ -121.580000, 51.080000 ] } }
,
{ "type": "Feature", "properties": { "Codes": "s0000108", "English Names": "Collingwood", "Province Codes": "ON", "Latitude": 44.500000, "Longitude": -80.240000 }, "geometry": { "type": "Point", "coordinates": [ -80.240000, 44.500000 ] } }
,
{ "type": "Feature", "properties": { "Codes": "s0000109", "English Names": "Shelburne", "Province Codes": "NS", "Latitude": 43.760000, "Longitude": -65.320000 }, "geometry": { "type": "Point", "coordinates": [ -65.320000, 43.760000 ] } }
,
{ "type": "Feature", "properties": { "Codes": "s0000110", "English Names": "Baccaro Point", "Province Codes": "NS", "Latitude": 43.450000, "Longitude": -65.470000 }, "geometry": { "type": "Point", "coordinates": [ -65.470000, 43.450000 ] } }
,
{ "type": "Feature", "properties": { "Codes": "s0000111", "English Names": "Coronation", "Province Codes": "AB", "Latitude": 52.090000, "Longitude": -111.450000 }, "geometry": { "type": "Point", "coordinates": [ -111.450000, 52.090000 ] } }
,
{ "type": "Feature", "properties": { "Codes": "s0000112", "English Names": "Englee", "Province Codes": "NL", "Latitude": 50.730000, "Longitude": -56.100000 }, "geometry": { "type": "Point", "coordinates": [ -56.100000, 50.730000 ] } }
,
{ "type": "Feature", "properties": { "Codes": "s0000113", "English Names": "Uranium City", "Province Codes": "SK", "Latitude": 59.570000, "Longitude": -108.610000 }, "geometry": { "type": "Point", "coordinates": [ -108.610000, 59.570000 ] } }
,
{ "type": "Feature", "properties": { "Codes": "s0000114", "English Names": "Port au Choix", "Province Codes": "NL", "Latitude": 50.710000, "Longitude": -57.360000 }, "geometry": { "type": "Point", "coordinates": [ -57.360000, 50.710000 ] } }
,
{ "type": "Feature", "properties": { "Codes": "s0000115", "English Names": "Daniel's Harbour", "Province Codes": "NL", "Latitude": 50.240000, "Longitude": -57.590000 }, "geometry": { "type": "Point", "coordinates": [ -57.590000, 50.240000 ] } }
,
{ "type": "Feature", "properties": { "Codes": "s0000116", "English Names": "Badger", "Province Codes": "NL", "Latitude": 48.980000, "Longitude": -56.040000 }, "geometry": { "type": "Point", "coordinates": [ -56.040000, 48.980000 ] } }
,
{ "type": "Feature", "properties": { "Codes": "s0000117", "English Names": "Buchans", "Province Codes": "NL", "Latitude": 48.820000, "Longitude": -56.860000 }, "geometry": { "type": "Point", "coordinates": [ -56.860000, 48.820000 ] } }
,
{ "type": "Feature", "properties": { "Codes": "s0000118", "English Names": "Grand Falls-Windsor", "Province Codes": "NL", "Latitude": 48.940000, "Longitude": -55.670000 }, "geometry": { "type": "Point", "coordinates": [ -55.670000, 48.940000 ] } }
,
{ "type": "Feature", "properties": { "Codes": "s0000119", "English Names": "Willow Creek (Provincial Park)", "Province Codes": "AB", "Latitude": 50.120000, "Longitude": -113.770000 }, "geometry": { "type": "Point", "coordinates": [ -113.770000, 50.120000 ] } }
,
{ "type": "Feature", "properties": { "Codes": "s0000120", "English Names": "Claresholm", "Province Codes": "AB", "Latitude": 50.020000, "Longitude": -113.580000 }, "geometry": { "type": "Point", "coordinates": [ -113.580000, 50.020000 ] } }
,
{ "type": "Feature", "properties": { "Codes": "s0000121", "English Names": "Chevery", "Province Codes": "QC", "Latitude": 50.470000, "Longitude": -59.600000 }, "geometry": { "type": "Point", "coordinates": [ -59.600000, 50.470000 ] } }
,
{ "type": "Feature", "properties": { "Codes": "s0000122", "English Names": "Twillingate", "Province Codes": "NL", "Latitude": 49.650000, "Longitude": -54.760000 }, "geometry": { "type": "Point", "coordinates": [ -54.760000, 49.650000 ] } }
,
{ "type": "Feature", "properties": { "Codes": "s0000123", "English Names": "Manicouagan", "Province Codes": "QC", "Latitude": 50.640000, "Longitude": -68.740000 }, "geometry": { "type": "Point", "coordinates": [ -68.740000, 50.640000 ] } }
,
{ "type": "Feature", "properties": { "Codes": "s0000124", "English Names": "La Tuque", "Province Codes": "QC", "Latitude": 47.430000, "Longitude": -72.780000 }, "geometry": { "type": "Point", "coordinates": [ -72.780000, 47.430000 ] } }
,
{ "type": "Feature", "properties": { "Codes": "s0000125", "English Names": "Mauricie", "Province Codes": "QC", "Latitude": 46.800000, "Longitude": -72.970000 }, "geometry": { "type": "Point", "coordinates": [ -72.970000, 46.800000 ] } }
,
{ "type": "Feature", "properties": { "Codes": "s0000126", "English Names": "Calgary (Olympic Park)", "Province Codes": "AB", "Latitude": 51.090000, "Longitude": -114.230000 }, "geometry": { "type": "Point", "coordinates": [ -114.230000, 51.090000 ] } }
,
{ "type": "Feature", "properties": { "Codes": "s0000127", "English Names": "Upsala", "Province Codes": "ON", "Latitude": 49.060000, "Longitude": -90.500000 }, "geometry": { "type": "Point", "coordinates": [ -90.500000, 49.060000 ] } }
,
{ "type": "Feature", "properties": { "Codes": "s0000128", "English Names": "St. Anthony", "Province Codes": "NL", "Latitude": 51.370000, "Longitude": -55.590000 }, "geometry": { "type": "Point", "coordinates": [ -55.590000, 51.370000 ] } }
,
{ "type": "Feature", "properties": { "Codes": "s0000129", "English Names": "Drumheller", "Province Codes": "AB", "Latitude": 51.460000, "Longitude": -112.720000 }, "geometry": { "type": "Point", "coordinates": [ -112.720000, 51.460000 ] } }
,
{ "type": "Feature", "properties": { "Codes": "s0000130", "English Names": "Pinawa", "Province Codes": "MB", "Latitude": 50.150000, "Longitude": -95.880000 }, "geometry": { "type": "Point", "coordinates": [ -95.880000, 50.150000 ] } }
,
{ "type": "Feature", "properties": { "Codes": "s0000131", "English Names": "Whiteshell", "Province Codes": "MB", "Latitude": 49.740000, "Longitude": -95.200000 }, "geometry": { "type": "Point", "coordinates": [ -95.200000, 49.740000 ] } }
,
{ "type": "Feature", "properties": { "Codes": "s0000132", "English Names": "Estevan Point", "Province Codes": "BC", "Latitude": 49.380000, "Longitude": -126.550000 }, "geometry": { "type": "Point", "coordinates": [ -126.550000, 49.380000 ] } }
,
{ "type": "Feature", "properties": { "Codes": "s0000133", "English Names": "Shaunavon", "Province Codes": "SK", "Latitude": 49.650000, "Longitude": -108.420000 }, "geometry": { "type": "Point", "coordinates": [ -108.420000, 49.650000 ] } }
,
{ "type": "Feature", "properties": { "Codes": "s0000134", "English Names": "Eastend", "Province Codes": "SK", "Latitude": 49.520000, "Longitude": -108.820000 }, "geometry": { "type": "Point", "coordinates": [ -108.820000, 49.520000 ] } }
,
{ "type": "Feature", "properties": { "Codes": "s0000135", "English Names": "Virden", "Province Codes": "MB", "Latitude": 49.850000, "Longitude": -100.930000 }, "geometry": { "type": "Point", "coordinates": [ -100.930000, 49.850000 ] } }
,
{ "type": "Feature", "properties": { "Codes": "s0000136", "English Names": "Melita", "Province Codes": "MB", "Latitude": 49.270000, "Longitude": -101.000000 }, "geometry": { "type": "Point", "coordinates": [ -101.000000, 49.270000 ] } }
,
{ "type": "Feature", "properties": { "Codes": "s0000137", "English Names": "Turtle Mountain (Provincial Park)", "Province Codes": "MB", "Latitude": 49.050000, "Longitude": -100.250000 }, "geometry": { "type": "Point", "coordinates": [ -100.250000, 49.050000 ] } }
,
{ "type": "Feature", "properties": { "Codes": "s0000138", "English Names": "East Point", "Province Codes": "PE", "Latitude": 46.450000, "Longitude": -62.000000 }, "geometry": { "type": "Point", "coordinates": [ -62.000000, 46.450000 ] } }
,
{ "type": "Feature", "properties": { "Codes": "s0000139", "English Names": "Swan River", "Province Codes": "MB", "Latitude": 52.110000, "Longitude": -101.270000 }, "geometry": { "type": "Point", "coordinates": [ -101.270000, 52.110000 ] } }
,
{ "type": "Feature", "properties": { "Codes": "s0000140", "English Names": "Eureka", "Province Codes": "NU", "Latitude": 79.980000, "Longitude": -85.950000 }, "geometry": { "type": "Point", "coordinates": [ -85.950000, 79.980000 ] } }
,
{ "type": "Feature", "properties": { "Codes": "s0000141", "English Names": "Vancouver", "Province Codes": "BC", "Latitude": 49.250000, "Longitude": -123.120000 }, "geometry": { "type": "Point", "coordinates": [ -123.120000, 49.250000 ] } }
,
{ "type": "Feature", "properties": { "Codes": "s0000142", "English Names": "L'Assomption", "Province Codes": "QC", "Latitude": 45.830000, "Longitude": -73.420000 }, "geometry": { "type": "Point", "coordinates": [ -73.420000, 45.830000 ] } }
,
{ "type": "Feature", "properties": { "Codes": "s0000143", "English Names": "Berthierville", "Province Codes": "QC", "Latitude": 46.080000, "Longitude": -73.180000 }, "geometry": { "type": "Point", "coordinates": [ -73.180000, 46.080000 ] } }
,
{ "type": "Feature", "properties": { "Codes": "s0000144", "English Names": "Contrecoeur", "Province Codes": "QC", "Latitude": 45.850000, "Longitude": -73.230000 }, "geometry": { "type": "Point", "coordinates": [ -73.230000, 45.850000 ] } }
,
{ "type": "Feature", "properties": { "Codes": "s0000145", "English Names": "Mascouche", "Province Codes": "QC", "Latitude": 45.750000, "Longitude": -73.600000 }, "geometry": { "type": "Point", "coordinates": [ -73.600000, 45.750000 ] } }
,
{ "type": "Feature", "properties": { "Codes": "s0000146", "English Names": "Prince George", "Province Codes": "BC", "Latitude": 53.920000, "Longitude": -122.750000 }, "geometry": { "type": "Point", "coordinates": [ -122.750000, 53.920000 ] } }
,
{ "type": "Feature", "properties": { "Codes": "s0000147", "English Names": "Sorel-Tracy", "Province Codes": "QC", "Latitude": 46.030000, "Longitude": -73.120000 }, "geometry": { "type": "Point", "coordinates": [ -73.120000, 46.030000 ] } }
,
{ "type": "Feature", "properties": { "Codes": "s0000148", "English Names": "Tracy", "Province Codes": "QC", "Latitude": 46.030000, "Longitude": -73.140000 }, "geometry": { "type": "Point", "coordinates": [ -73.140000, 46.030000 ] } }
,
{ "type": "Feature", "properties": { "Codes": "s0000149", "English Names": "Le Gardeur", "Province Codes": "QC", "Latitude": 45.750000, "Longitude": -73.470000 }, "geometry": { "type": "Point", "coordinates": [ -73.470000, 45.750000 ] } }
,
{ "type": "Feature", "properties": { "Codes": "s0000150", "English Names": "Morris", "Province Codes": "MB", "Latitude": 49.360000, "Longitude": -97.370000 }, "geometry": { "type": "Point", "coordinates": [ -97.370000, 49.360000 ] } }
,
{ "type": "Feature", "properties": { "Codes": "s0000151", "English Names": "Steinbach", "Province Codes": "MB", "Latitude": 49.530000, "Longitude": -96.680000 }, "geometry": { "type": "Point", "coordinates": [ -96.680000, 49.530000 ] } }
,
{ "type": "Feature", "properties": { "Codes": "s0000152", "English Names": "Dominion City", "Province Codes": "MB", "Latitude": 49.140000, "Longitude": -97.160000 }, "geometry": { "type": "Point", "coordinates": [ -97.160000, 49.140000 ] } }
,
{ "type": "Feature", "properties": { "Codes": "s0000153", "English Names": "Emerson", "Province Codes": "MB", "Latitude": 49.010000, "Longitude": -97.210000 }, "geometry": { "type": "Point", "coordinates": [ -97.210000, 49.010000 ] } }
,
{ "type": "Feature", "properties": { "Codes": "s0000154", "English Names": "Vita", "Province Codes": "MB", "Latitude": 49.130000, "Longitude": -96.560000 }, "geometry": { "type": "Point", "coordinates": [ -96.560000, 49.130000 ] } }
,
{ "type": "Feature", "properties": { "Codes": "s0000155", "English Names": "Gulf Islands (Southern)", "Province Codes": "BC", "Latitude": 48.950000, "Longitude": -123.530000 }, "geometry": { "type": "Point", "coordinates": [ -123.530000, 48.950000 ] } }
,
{ "type": "Feature", "properties": { "Codes": "s0000156", "English Names": "Elk Island (National Park)", "Province Codes": "AB", "Latitude": 53.610000, "Longitude": -112.870000 }, "geometry": { "type": "Point", "coordinates": [ -112.870000, 53.610000 ] } }
,
{ "type": "Feature", "properties": { "Codes": "s0000157", "English Names": "Tisdale", "Province Codes": "SK", "Latitude": 52.850000, "Longitude": -104.050000 }, "geometry": { "type": "Point", "coordinates": [ -104.050000, 52.850000 ] } }
,
{ "type": "Feature", "properties": { "Codes": "s0000158", "English Names": "Melfort", "Province Codes": "SK", "Latitude": 52.860000, "Longitude": -104.610000 }, "geometry": { "type": "Point", "coordinates": [ -104.610000, 52.860000 ] } }
,
{ "type": "Feature", "properties": { "Codes": "s0000159", "English Names": "Cardston", "Province Codes": "AB", "Latitude": 49.200000, "Longitude": -113.300000 }, "geometry": { "type": "Point", "coordinates": [ -113.300000, 49.200000 ] } }
,
{ "type": "Feature", "properties": { "Codes": "s0000160", "English Names": "Snow Lake", "Province Codes": "MB", "Latitude": 54.880000, "Longitude": -100.040000 }, "geometry": { "type": "Point", "coordinates": [ -100.040000, 54.880000 ] } }
,
{ "type": "Feature", "properties": { "Codes": "s0000161", "English Names": "Pukatawagan", "Province Codes": "MB", "Latitude": 55.740000, "Longitude": -101.320000 }, "geometry": { "type": "Point", "coordinates": [ -101.320000, 55.740000 ] } }
,
{ "type": "Feature", "properties": { "Codes": "s0000162", "English Names": "Nain", "Province Codes": "NL", "Latitude": 56.550000, "Longitude": -61.690000 }, "geometry": { "type": "Point", "coordinates": [ -61.690000, 56.550000 ] } }
,
{ "type": "Feature", "properties": { "Codes": "s0000163", "English Names": "Sutton", "Province Codes": "QC", "Latitude": 45.100000, "Longitude": -72.620000 }, "geometry": { "type": "Point", "coordinates": [ -72.620000, 45.100000 ] } }
,
{ "type": "Feature", "properties": { "Codes": "s0000164", "English Names": "Colville Lake", "Province Codes": "NT", "Latitude": 67.030000, "Longitude": -126.120000 }, "geometry": { "type": "Point", "coordinates": [ -126.120000, 67.030000 ] } }
,
{ "type": "Feature", "properties": { "Codes": "s0000165", "English Names": "Goderich", "Province Codes": "ON", "Latitude": 43.740000, "Longitude": -81.700000 }, "geometry": { "type": "Point", "coordinates": [ -81.700000, 43.740000 ] } }
,
{ "type": "Feature", "properties": { "Codes": "s0000166", "English Names": "Kincardine", "Province Codes": "ON", "Latitude": 44.170000, "Longitude": -81.630000 }, "geometry": { "type": "Point", "coordinates": [ -81.630000, 44.170000 ] } }
,
{ "type": "Feature", "properties": { "Codes": "s0000167", "English Names": "Garden Creek", "Province Codes": "AB", "Latitude": 58.700000, "Longitude": -113.880000 }, "geometry": { "type": "Point", "coordinates": [ -113.880000, 58.700000 ] } }
,
{ "type": "Feature", "properties": { "Codes": "s0000168", "English Names": "Brockville", "Province Codes": "ON", "Latitude": 44.600000, "Longitude": -75.690000 }, "geometry": { "type": "Point", "coordinates": [ -75.690000, 44.600000 ] } }
,
{ "type": "Feature", "properties": { "Codes": "s0000169", "English Names": "Gananoque", "Province Codes": "ON", "Latitude": 44.330000, "Longitude": -76.160000 }, "geometry": { "type": "Point", "coordinates": [ -76.160000, 44.330000 ] } }
,
{ "type": "Feature", "properties": { "Codes": "s0000170", "English Names": "Waterton Park", "Province Codes": "AB", "Latitude": 49.050000, "Longitude": -113.910000 }, "geometry": { "type": "Point", "coordinates": [ -113.910000, 49.050000 ] } }
,
{ "type": "Feature", "properties": { "Codes": "s0000171", "English Names": "Altona", "Province Codes": "MB", "Latitude": 49.100000, "Longitude": -97.560000 }, "geometry": { "type": "Point", "coordinates": [ -97.560000, 49.100000 ] } }
,
{ "type": "Feature", "properties": { "Codes": "s0000172", "English Names": "Gretna", "Province Codes": "MB", "Latitude": 49.010000, "Longitude": -97.560000 }, "geometry": { "type": "Point", "coordinates": [ -97.560000, 49.010000 ] } }
,
{ "type": "Feature", "properties": { "Codes": "s0000173", "English Names": "Pemberton", "Province Codes": "BC", "Latitude": 50.320000, "Longitude": -122.800000 }, "geometry": { "type": "Point", "coordinates": [ -122.800000, 50.320000 ] } }
,
{ "type": "Feature", "properties": { "Codes": "s0000174", "English Names": "Îles-de-la-Madeleine", "Province Codes": "QC", "Latitude": 47.400000, "Longitude": -61.780000 }, "geometry": { "type": "Point", "coordinates": [ -61.780000, 47.400000 ] } }
,
{ "type": "Feature", "properties": { "Codes": "s0000175", "English Names": "Sparwood", "Province Codes": "BC", "Latitude": 49.720000, "Longitude": -114.900000 }, "geometry": { "type": "Point", "coordinates": [ -114.900000, 49.720000 ] } }
,
{ "type": "Feature", "properties": { "Codes": "s0000176", "English Names": "Esther", "Province Codes": "AB", "Latitude": 51.680000, "Longitude": -110.260000 }, "geometry": { "type": "Point", "coordinates": [ -110.260000, 51.680000 ] } }
,
{ "type": "Feature", "properties": { "Codes": "s0000177", "English Names": "Grise Fiord", "Province Codes": "NU", "Latitude": 76.420000, "Longitude": -82.900000 }, "geometry": { "type": "Point", "coordinates": [ -82.900000, 76.420000 ] } }
,
{ "type": "Feature", "properties": { "Codes": "s0000178", "English Names": "Hunters Point", "Province Codes": "MB", "Latitude": 53.030000, "Longitude": -100.940000 }, "geometry": { "type": "Point", "coordinates": [ -100.940000, 53.030000 ] } }
,
{ "type": "Feature", "properties": { "Codes": "s0000179", "English Names": "Three Hills", "Province Codes": "AB", "Latitude": 51.700000, "Longitude": -113.270000 }, "geometry": { "type": "Point", "coordinates": [ -113.270000, 51.700000 ] } }
,
{ "type": "Feature", "properties": { "Codes": "s0000180", "English Names": "Varennes", "Province Codes": "QC", "Latitude": 45.680000, "Longitude": -73.430000 }, "geometry": { "type": "Point", "coordinates": [ -73.430000, 45.680000 ] } }
,
{ "type": "Feature", "properties": { "Codes": "s0000181", "English Names": "Hopedale", "Province Codes": "NL", "Latitude": 55.470000, "Longitude": -60.220000 }, "geometry": { "type": "Point", "coordinates": [ -60.220000, 55.470000 ] } }
,
{ "type": "Feature", "properties": { "Codes": "s0000182", "English Names": "Donnacona", "Province Codes": "QC", "Latitude": 46.670000, "Longitude": -71.750000 }, "geometry": { "type": "Point", "coordinates": [ -71.750000, 46.670000 ] } }
,
{ "type": "Feature", "properties": { "Codes": "s0000183", "English Names": "Haines Junction", "Province Codes": "YT", "Latitude": 60.750000, "Longitude": -137.510000 }, "geometry": { "type": "Point", "coordinates": [ -137.510000, 60.750000 ] } }
,
{ "type": "Feature", "properties": { "Codes": "s0000185", "English Names": "Beauceville", "Province Codes": "QC", "Latitude": 46.200000, "Longitude": -70.780000 }, "geometry": { "type": "Point", "coordinates": [ -70.780000, 46.200000 ] } }
,
{ "type": "Feature", "properties": { "Codes": "s0000186", "English Names": "Lac-Mégantic", "Province Codes": "QC", "Latitude": 45.580000, "Longitude": -70.880000 }, "geometry": { "type": "Point", "coordinates": [ -70.880000, 45.580000 ] } }
,
{ "type": "Feature", "properties": { "Codes": "s0000187", "English Names": "Saint-Georges", "Province Codes": "QC", "Latitude": 46.120000, "Longitude": -70.670000 }, "geometry": { "type": "Point", "coordinates": [ -70.670000, 46.120000 ] } }
,
{ "type": "Feature", "properties": { "Codes": "s0000188", "English Names": "Fort Providence", "Province Codes": "NT", "Latitude": 61.350000, "Longitude": -117.650000 }, "geometry": { "type": "Point", "coordinates": [ -117.650000, 61.350000 ] } }
,
{ "type": "Feature", "properties": { "Codes": "s0000189", "English Names": "Pine Falls", "Province Codes": "MB", "Latitude": 50.570000, "Longitude": -96.220000 }, "geometry": { "type": "Point", "coordinates": [ -96.220000, 50.570000 ] } }
,
{ "type": "Feature", "properties": { "Codes": "s0000190", "English Names": "Victoria Beach", "Province Codes": "MB", "Latitude": 50.700000, "Longitude": -96.560000 }, "geometry": { "type": "Point", "coordinates": [ -96.560000, 50.700000 ] } }
,
{ "type": "Feature", "properties": { "Codes": "s0000191", "English Names": "Grand Beach", "Province Codes": "MB", "Latitude": 50.550000, "Longitude": -96.630000 }, "geometry": { "type": "Point", "coordinates": [ -96.630000, 50.550000 ] } }
,
{ "type": "Feature", "properties": { "Codes": "s0000192", "English Names": "Broadview", "Province Codes": "SK", "Latitude": 50.380000, "Longitude": -102.580000 }, "geometry": { "type": "Point", "coordinates": [ -102.580000, 50.380000 ] } }
,
{ "type": "Feature", "properties": { "Codes": "s0000193", "English Names": "Winnipeg", "Province Codes": "MB", "Latitude": 49.880000, "Longitude": -97.150000 }, "geometry": { "type": "Point", "coordinates": [ -97.150000, 49.880000 ] } }
,
{ "type": "Feature", "properties": { "Codes": "s0000194", "English Names": "Charlevoix", "Province Codes": "QC", "Latitude": 47.480000, "Longitude": -70.480000 }, "geometry": { "type": "Point", "coordinates": [ -70.480000, 47.480000 ] } }
,
{ "type": "Feature", "properties": { "Codes": "s0000195", "English Names": "Watrous", "Province Codes": "SK", "Latitude": 51.690000, "Longitude": -105.460000 }, "geometry": { "type": "Point", "coordinates": [ -105.460000, 51.690000 ] } }
,
{ "type": "Feature", "properties": { "Codes": "s0000196", "English Names": "Humboldt", "Province Codes": "SK", "Latitude": 52.200000, "Longitude": -105.120000 }, "geometry": { "type": "Point", "coordinates": [ -105.120000, 52.200000 ] } }
,
{ "type": "Feature", "properties": { "Codes": "s0000197", "English Names": "Alma", "Province Codes": "QC", "Latitude": 48.550000, "Longitude": -71.650000 }, "geometry": { "type": "Point", "coordinates": [ -71.650000, 48.550000 ] } }
,
{ "type": "Feature", "properties": { "Codes": "s0000198", "English Names": "Mount Carleton (Provincial Park)", "Province Codes": "NB", "Latitude": 47.380000, "Longitude": -66.830000 }, "geometry": { "type": "Point", "coordinates": [ -66.830000, 47.380000 ] } }
,
{ "type": "Feature", "properties": { "Codes": "s0000199", "English Names": "Saint-Quentin", "Province Codes": "NB", "Latitude": 47.510000, "Longitude": -67.390000 }, "geometry": { "type": "Point", "coordinates": [ -67.390000, 47.510000 ] } }
,
{ "type": "Feature", "properties": { "Codes": "s0000200", "English Names": "St. Leonard", "Province Codes": "NB", "Latitude": 47.170000, "Longitude": -67.920000 }, "geometry": { "type": "Point", "coordinates": [ -67.920000, 47.170000 ] } }
,
{ "type": "Feature", "properties": { "Codes": "s0000201", "English Names": "Grand Falls", "Province Codes": "NB", "Latitude": 47.050000, "Longitude": -67.740000 }, "geometry": { "type": "Point", "coordinates": [ -67.740000, 47.050000 ] } }
,
{ "type": "Feature", "properties": { "Codes": "s0000202", "English Names": "Saint-Jean-sur-Richelieu", "Province Codes": "QC", "Latitude": 45.320000, "Longitude": -73.270000 }, "geometry": { "type": "Point", "coordinates": [ -73.270000, 45.320000 ] } }
,
{ "type": "Feature", "properties": { "Codes": "s0000203", "English Names": "Saint-Luc", "Province Codes": "QC", "Latitude": 45.350000, "Longitude": -73.300000 }, "geometry": { "type": "Point", "coordinates": [ -73.300000, 45.350000 ] } }
,
{ "type": "Feature", "properties": { "Codes": "s0000204", "English Names": "Vanier", "Province Codes": "QC", "Latitude": 46.820000, "Longitude": -71.260000 }, "geometry": { "type": "Point", "coordinates": [ -71.260000, 46.820000 ] } }
,
{ "type": "Feature", "properties": { "Codes": "s0000205", "English Names": "Bernières", "Province Codes": "QC", "Latitude": 46.690000, "Longitude": -71.360000 }, "geometry": { "type": "Point", "coordinates": [ -71.360000, 46.690000 ] } }
,
{ "type": "Feature", "properties": { "Codes": "s0000206", "English Names": "Ennadai", "Province Codes": "NU", "Latitude": 61.130000, "Longitude": -100.880000 }, "geometry": { "type": "Point", "coordinates": [ -100.880000, 61.130000 ] } }
,
{ "type": "Feature", "properties": { "Codes": "s0000207", "English Names": "Grand Rapids", "Province Codes": "MB", "Latitude": 53.180000, "Longitude": -99.260000 }, "geometry": { "type": "Point", "coordinates": [ -99.260000, 53.180000 ] } }
,
{ "type": "Feature", "properties": { "Codes": "s0000208", "English Names": "Southend Reindeer", "Province Codes": "SK", "Latitude": 56.320000, "Longitude": -103.270000 }, "geometry": { "type": "Point", "coordinates": [ -103.270000, 56.320000 ] } }
,
{ "type": "Feature", "properties": { "Codes": "s0000209", "English Names": "Assiniboia", "Province Codes": "SK", "Latitude": 49.630000, "Longitude": -105.990000 }, "geometry": { "type": "Point", "coordinates": [ -105.990000, 49.630000 ] } }
,
{ "type": "Feature", "properties": { "Codes": "s0000210", "English Names": "Fort Liard", "Province Codes": "NT", "Latitude": 60.230000, "Longitude": -123.470000 }, "geometry": { "type": "Point", "coordinates": [ -123.470000, 60.230000 ] } }
,
{ "type": "Feature", "properties": { "Codes": "s0000211", "English Names": "Saguenay", "Province Codes": "QC", "Latitude": 48.420000, "Longitude": -71.070000 }, "geometry": { "type": "Point", "coordinates": [ -71.070000, 48.420000 ] } }
,
{ "type": "Feature", "properties": { "Codes": "s0000212", "English Names": "Creston", "Province Codes": "BC", "Latitude": 49.100000, "Longitude": -116.500000 }, "geometry": { "type": "Point", "coordinates": [ -116.500000, 49.100000 ] } }
,
{ "type": "Feature", "properties": { "Codes": "s0000213", "English Names": "Mont-Tremblant", "Province Codes": "QC", "Latitude": 46.120000, "Longitude": -74.600000 }, "geometry": { "type": "Point", "coordinates": [ -74.600000, 46.120000 ] } }
,
{ "type": "Feature", "properties": { "Codes": "s0000214", "English Names": "Sainte-Agathe", "Province Codes": "QC", "Latitude": 46.050000, "Longitude": -74.280000 }, "geometry": { "type": "Point", "coordinates": [ -74.280000, 46.050000 ] } }
,
{ "type": "Feature", "properties": { "Codes": "s0000216", "English Names": "Vernon", "Province Codes": "BC", "Latitude": 50.260000, "Longitude": -119.270000 }, "geometry": { "type": "Point", "coordinates": [ -119.270000, 50.260000 ] } }
,
{ "type": "Feature", "properties": { "Codes": "s0000217", "English Names": "Hinton", "Province Codes": "AB", "Latitude": 53.410000, "Longitude": -117.560000 }, "geometry": { "type": "Point", "coordinates": [ -117.560000, 53.410000 ] } }
,
{ "type": "Feature", "properties": { "Codes": "s0000218", "English Names": "Jasper", "Province Codes": "AB", "Latitude": 52.890000, "Longitude": -118.170000 }, "geometry": { "type": "Point", "coordinates": [ -118.170000, 52.890000 ] } }
,
{ "type": "Feature", "properties": { "Codes": "s0000219", "English Names": "Leader", "Province Codes": "SK", "Latitude": 50.890000, "Longitude": -109.550000 }, "geometry": { "type": "Point", "coordinates": [ -109.550000, 50.890000 ] } }
,
{ "type": "Feature", "properties": { "Codes": "s0000220", "English Names": "Marble Mountain", "Province Codes": "NL", "Latitude": 48.940000, "Longitude": -57.840000 }, "geometry": { "type": "Point", "coordinates": [ -57.840000, 48.940000 ] } }
,
{ "type": "Feature", "properties": { "Codes": "s0000221", "English Names": "Corner Brook", "Province Codes": "NL", "Latitude": 48.940000, "Longitude": -57.970000 }, "geometry": { "type": "Point", "coordinates": [ -57.970000, 48.940000 ] } }
,
{ "type": "Feature", "properties": { "Codes": "s0000222", "English Names": "Lillooet", "Province Codes": "BC", "Latitude": 50.680000, "Longitude": -121.930000 }, "geometry": { "type": "Point", "coordinates": [ -121.930000, 50.680000 ] } }
,
{ "type": "Feature", "properties": { "Codes": "s0000223", "English Names": "Kejimkujik (National Park)", "Province Codes": "NS", "Latitude": 44.390000, "Longitude": -65.290000 }, "geometry": { "type": "Point", "coordinates": [ -65.290000, 44.390000 ] } }
,
{ "type": "Feature", "properties": { "Codes": "s0000224", "English Names": "Malahat", "Province Codes": "BC", "Latitude": 48.550000, "Longitude": -123.570000 }, "geometry": { "type": "Point", "coordinates": [ -123.570000, 48.550000 ] } }
,
{ "type": "Feature", "properties": { "Codes": "s0000225", "English Names": "Rockglen", "Province Codes": "SK", "Latitude": 49.180000, "Longitude": -105.950000 }, "geometry": { "type": "Point", "coordinates": [ -105.950000, 49.180000 ] } }
,
{ "type": "Feature", "properties": { "Codes": "s0000226", "English Names": "Hope Slide", "Province Codes": "BC", "Latitude": 49.300000, "Longitude": -121.270000 }, "geometry": { "type": "Point", "coordinates": [ -121.270000, 49.300000 ] } }
,
{ "type": "Feature", "properties": { "Codes": "s0000227", "English Names": "Dease Lake", "Province Codes": "BC", "Latitude": 58.430000, "Longitude": -130.020000 }, "geometry": { "type": "Point", "coordinates": [ -130.020000, 58.430000 ] } }
,
{ "type": "Feature", "properties": { "Codes": "s0000228", "English Names": "Cassiar", "Province Codes": "BC", "Latitude": 59.290000, "Longitude": -129.850000 }, "geometry": { "type": "Point", "coordinates": [ -129.850000, 59.290000 ] } }
,
{ "type": "Feature", "properties": { "Codes": "s0000229", "English Names": "Lac La Biche", "Province Codes": "AB", "Latitude": 54.770000, "Longitude": -111.980000 }, "geometry": { "type": "Point", "coordinates": [ -111.980000, 54.770000 ] } }
,
{ "type": "Feature", "properties": { "Codes": "s0000230", "English Names": "Lucky Lake", "Province Codes": "SK", "Latitude": 50.990000, "Longitude": -107.130000 }, "geometry": { "type": "Point", "coordinates": [ -107.130000, 50.990000 ] } }
,
{ "type": "Feature", "properties": { "Codes": "s0000231", "English Names": "Ogoki", "Province Codes": "ON", "Latitude": 51.630000, "Longitude": -85.950000 }, "geometry": { "type": "Point", "coordinates": [ -85.950000, 51.630000 ] } }
,
{ "type": "Feature", "properties": { "Codes": "s0000232", "English Names": "Webequie", "Province Codes": "ON", "Latitude": 52.990000, "Longitude": -87.360000 }, "geometry": { "type": "Point", "coordinates": [ -87.360000, 52.990000 ] } }
,
{ "type": "Feature", "properties": { "Codes": "s0000233", "English Names": "Lansdowne House", "Province Codes": "ON", "Latitude": 52.220000, "Longitude": -87.890000 }, "geometry": { "type": "Point", "coordinates": [ -87.890000, 52.220000 ] } }
,
{ "type": "Feature", "properties": { "Codes": "s0000234", "English Names": "Gonzales Point", "Province Codes": "BC", "Latitude": 48.410000, "Longitude": -123.290000 }, "geometry": { "type": "Point", "coordinates": [ -123.290000, 48.410000 ] } }
,
{ "type": "Feature", "properties": { "Codes": "s0000235", "English Names": "Wingham", "Province Codes": "ON", "Latitude": 43.890000, "Longitude": -81.310000 }, "geometry": { "type": "Point", "coordinates": [ -81.310000, 43.890000 ] } }
,
{ "type": "Feature", "properties": { "Codes": "s0000236", "English Names": "Walkerton", "Province Codes": "ON", "Latitude": 44.130000, "Longitude": -81.150000 }, "geometry": { "type": "Point", "coordinates": [ -81.150000, 44.130000 ] } }
,
{ "type": "Feature", "properties": { "Codes": "s0000237", "English Names": "Dundalk", "Province Codes": "ON", "Latitude": 44.170000, "Longitude": -80.390000 }, "geometry": { "type": "Point", "coordinates": [ -80.390000, 44.170000 ] } }
,
{ "type": "Feature", "properties": { "Codes": "s0000238", "English Names": "North Perth", "Province Codes": "ON", "Latitude": 43.730000, "Longitude": -80.970000 }, "geometry": { "type": "Point", "coordinates": [ -80.970000, 43.730000 ] } }
,
{ "type": "Feature", "properties": { "Codes": "s0000239", "English Names": "Shelburne", "Province Codes": "ON", "Latitude": 44.080000, "Longitude": -80.200000 }, "geometry": { "type": "Point", "coordinates": [ -80.200000, 44.080000 ] } }
,
{ "type": "Feature", "properties": { "Codes": "s0000240", "English Names": "Mount Forest", "Province Codes": "ON", "Latitude": 43.980000, "Longitude": -80.740000 }, "geometry": { "type": "Point", "coordinates": [ -80.740000, 43.980000 ] } }
,
{ "type": "Feature", "properties": { "Codes": "s0000241", "English Names": "Waskesiu Lake", "Province Codes": "SK", "Latitude": 53.920000, "Longitude": -106.080000 }, "geometry": { "type": "Point", "coordinates": [ -106.080000, 53.920000 ] } }
,
{ "type": "Feature", "properties": { "Codes": "s0000242", "English Names": "Lytton", "Province Codes": "BC", "Latitude": 50.230000, "Longitude": -121.570000 }, "geometry": { "type": "Point", "coordinates": [ -121.570000, 50.230000 ] } }
,
{ "type": "Feature", "properties": { "Codes": "s0000243", "English Names": "Miscou Island", "Province Codes": "NB", "Latitude": 47.950000, "Longitude": -64.570000 }, "geometry": { "type": "Point", "coordinates": [ -64.570000, 47.950000 ] } }
,
{ "type": "Feature", "properties": { "Codes": "s0000244", "English Names": "Maniwaki", "Province Codes": "QC", "Latitude": 46.380000, "Longitude": -75.970000 }, "geometry": { "type": "Point", "coordinates": [ -75.970000, 46.380000 ] } }
,
{ "type": "Feature", "properties": { "Codes": "s0000245", "English Names": "La Vérendrye (Réserve faunique)", "Province Codes": "QC", "Latitude": 47.330000, "Longitude": -77.000000 }, "geometry": { "type": "Point", "coordinates": [ -77.000000, 47.330000 ] } }
,
{ "type": "Feature", "properties": { "Codes": "s0000246", "English Names": "Mont-Laurier", "Province Codes": "QC", "Latitude": 46.550000, "Longitude": -75.500000 }, "geometry": { "type": "Point", "coordinates": [ -75.500000, 46.550000 ] } }
,
{ "type": "Feature", "properties": { "Codes": "s0000247", "English Names": "Pitt Meadows", "Province Codes": "BC", "Latitude": 49.220000, "Longitude": -122.690000 }, "geometry": { "type": "Point", "coordinates": [ -122.690000, 49.220000 ] } }
,
{ "type": "Feature", "properties": { "Codes": "s0000248", "English Names": "Maple Creek", "Province Codes": "SK", "Latitude": 49.910000, "Longitude": -109.480000 }, "geometry": { "type": "Point", "coordinates": [ -109.480000, 49.910000 ] } }
,
{ "type": "Feature", "properties": { "Codes": "s0000249", "English Names": "Whati", "Province Codes": "NT", "Latitude": 63.140000, "Longitude": -117.270000 }, "geometry": { "type": "Point", "coordinates": [ -117.270000, 63.140000 ] } }
,
{ "type": "Feature", "properties": { "Codes": "s0000250", "English Names": "Fredericton", "Province Codes": "NB", "Latitude": 45.950000, "Longitude": -66.670000 }, "geometry": { "type": "Point", "coordinates": [ -66.670000, 45.950000 ] } }
,
{ "type": "Feature", "properties": { "Codes": "s0000251", "English Names": "Cobourg", "Province Codes": "ON", "Latitude": 43.960000, "Longitude": -78.160000 }, "geometry": { "type": "Point", "coordinates": [ -78.160000, 43.960000 ] } }
,
{ "type": "Feature", "properties": { "Codes": "s0000252", "English Names": "North Cape", "Province Codes": "PE", "Latitude": 47.070000, "Longitude": -64.000000 }, "geometry": { "type": "Point", "coordinates": [ -64.000000, 47.070000 ] } }
,
{ "type": "Feature", "properties": { "Codes": "s0000253", "English Names": "Rivière-du-Loup", "Province Codes": "QC", "Latitude": 47.830000, "Longitude": -69.530000 }, "geometry": { "type": "Point", "coordinates": [ -69.530000, 47.830000 ] } }
,
{ "type": "Feature", "properties": { "Codes": "s0000254", "English Names": "Trois-Pistoles", "Province Codes": "QC", "Latitude": 48.120000, "Longitude": -69.180000 }, "geometry": { "type": "Point", "coordinates": [ -69.180000, 48.120000 ] } }
,
{ "type": "Feature", "properties": { "Codes": "s0000255", "English Names": "Temiscouata", "Province Codes": "QC", "Latitude": 47.680000, "Longitude": -68.880000 }, "geometry": { "type": "Point", "coordinates": [ -68.880000, 47.680000 ] } }
,
{ "type": "Feature", "properties": { "Codes": "s0000256", "English Names": "Deerwood", "Province Codes": "MB", "Latitude": 49.400000, "Longitude": -98.390000 }, "geometry": { "type": "Point", "coordinates": [ -98.390000, 49.400000 ] } }
,
{ "type": "Feature", "properties": { "Codes": "s0000257", "English Names": "Carman", "Province Codes": "MB", "Latitude": 49.500000, "Longitude": -98.000000 }, "geometry": { "type": "Point", "coordinates": [ -98.000000, 49.500000 ] } }
,
{ "type": "Feature", "properties": { "Codes": "s0000258", "English Names": "Nelson", "Province Codes": "BC", "Latitude": 49.500000, "Longitude": -117.280000 }, "geometry": { "type": "Point", "coordinates": [ -117.280000, 49.500000 ] } }
,
{ "type": "Feature", "properties": { "Codes": "s0000259", "English Names": "Nakusp", "Province Codes": "BC", "Latitude": 50.250000, "Longitude": -117.800000 }, "geometry": { "type": "Point", "coordinates": [ -117.800000, 50.250000 ] } }
,
{ "type": "Feature", "properties": { "Codes": "s0000260", "English Names": "Nicolet", "Province Codes": "QC", "Latitude": 46.220000, "Longitude": -72.620000 }, "geometry": { "type": "Point", "coordinates": [ -72.620000, 46.220000 ] } }
,
{ "type": "Feature", "properties": { "Codes": "s0000261", "English Names": "Drummondville", "Province Codes": "QC", "Latitude": 45.880000, "Longitude": -72.480000 }, "geometry": { "type": "Point", "coordinates": [ -72.480000, 45.880000 ] } }
,
{ "type": "Feature", "properties": { "Codes": "s0000262", "English Names": "Saint-Nicéphore", "Province Codes": "QC", "Latitude": 45.830000, "Longitude": -72.420000 }, "geometry": { "type": "Point", "coordinates": [ -72.420000, 45.830000 ] } }
,
{ "type": "Feature", "properties": { "Codes": "s0000263", "English Names": "Kananaskis (Nakiska Ridgetop)", "Province Codes": "AB", "Latitude": 51.080000, "Longitude": -115.130000 }, "geometry": { "type": "Point", "coordinates": [ -115.130000, 51.080000 ] } }
,
{ "type": "Feature", "properties": { "Codes": "s0000264", "English Names": "North East Margaree", "Province Codes": "NS", "Latitude": 46.330000, "Longitude": -61.010000 }, "geometry": { "type": "Point", "coordinates": [ -61.010000, 46.330000 ] } }
,
{ "type": "Feature", "properties": { "Codes": "s0000265", "English Names": "Baddeck", "Province Codes": "NS", "Latitude": 46.100000, "Longitude": -60.750000 }, "geometry": { "type": "Point", "coordinates": [ -60.750000, 46.100000 ] } }
,
{ "type": "Feature", "properties": { "Codes": "s0000266", "English Names": "Hearst", "Province Codes": "ON", "Latitude": 49.690000, "Longitude": -83.650000 }, "geometry": { "type": "Point", "coordinates": [ -83.650000, 49.690000 ] } }
,
{ "type": "Feature", "properties": { "Codes": "s0000267", "English Names": "Hornepayne", "Province Codes": "ON", "Latitude": 49.250000, "Longitude": -84.780000 }, "geometry": { "type": "Point", "coordinates": [ -84.780000, 49.250000 ] } }
,
{ "type": "Feature", "properties": { "Codes": "s0000268", "English Names": "New Carlisle", "Province Codes": "QC", "Latitude": 48.020000, "Longitude": -65.330000 }, "geometry": { "type": "Point", "coordinates": [ -65.330000, 48.020000 ] } }
,
{ "type": "Feature", "properties": { "Codes": "s0000269", "English Names": "Bonaventure", "Province Codes": "QC", "Latitude": 48.050000, "Longitude": -65.480000 }, "geometry": { "type": "Point", "coordinates": [ -65.480000, 48.050000 ] } }
,
{ "type": "Feature", "properties": { "Codes": "s0000270", "English Names": "Dolbeau-Mistassini", "Province Codes": "QC", "Latitude": 48.880000, "Longitude": -72.230000 }, "geometry": { "type": "Point", "coordinates": [ -72.230000, 48.880000 ] } }
,
{ "type": "Feature", "properties": { "Codes": "s0000272", "English Names": "Onefour", "Province Codes": "AB", "Latitude": 49.120000, "Longitude": -110.470000 }, "geometry": { "type": "Point", "coordinates": [ -110.470000, 49.120000 ] } }
,
{ "type": "Feature", "properties": { "Codes": "s0000273", "English Names": "Oak Point", "Province Codes": "MB", "Latitude": 50.510000, "Longitude": -98.030000 }, "geometry": { "type": "Point", "coordinates": [ -98.030000, 50.510000 ] } }
,
{ "type": "Feature", "properties": { "Codes": "s0000274", "English Names": "Elbow", "Province Codes": "SK", "Latitude": 51.120000, "Longitude": -106.600000 }, "geometry": { "type": "Point", "coordinates": [ -106.600000, 51.120000 ] } }
,
{ "type": "Feature", "properties": { "Codes": "s0000275", "English Names": "Dawson", "Province Codes": "YT", "Latitude": 64.060000, "Longitude": -139.430000 }, "geometry": { "type": "Point", "coordinates": [ -139.430000, 64.060000 ] } }
,
{ "type": "Feature", "properties": { "Codes": "s0000276", "English Names": "McCreary", "Province Codes": "MB", "Latitude": 50.770000, "Longitude": -99.490000 }, "geometry": { "type": "Point", "coordinates": [ -99.490000, 50.770000 ] } }
,
{ "type": "Feature", "properties": { "Codes": "s0000277", "English Names": "Breton", "Province Codes": "AB", "Latitude": 53.110000, "Longitude": -114.470000 }, "geometry": { "type": "Point", "coordinates": [ -114.470000, 53.110000 ] } }
,
{ "type": "Feature", "properties": { "Codes": "s0000278", "English Names": "Wynyard", "Province Codes": "SK", "Latitude": 51.770000, "Longitude": -104.180000 }, "geometry": { "type": "Point", "coordinates": [ -104.180000, 51.770000 ] } }
,
{ "type": "Feature", "properties": { "Codes": "s0000279", "English Names": "Hendrickson Creek", "Province Codes": "AB", "Latitude": 53.770000, "Longitude": -118.370000 }, "geometry": { "type": "Point", "coordinates": [ -118.370000, 53.770000 ] } }
,
{ "type": "Feature", "properties": { "Codes": "s0000280", "English Names": "St. John's", "Province Codes": "NL", "Latitude": 47.570000, "Longitude": -52.730000 }, "geometry": { "type": "Point", "coordinates": [ -52.730000, 47.570000 ] } }
,
{ "type": "Feature", "properties": { "Codes": "s0000281", "English Names": "Midland", "Province Codes": "ON", "Latitude": 44.750000, "Longitude": -79.880000 }, "geometry": { "type": "Point", "coordinates": [ -79.880000, 44.750000 ] } }
,
{ "type": "Feature", "properties": { "Codes": "s0000282", "English Names": "Fort Erie", "Province Codes": "ON", "Latitude": 42.920000, "Longitude": -79.020000 }, "geometry": { "type": "Point", "coordinates": [ -79.020000, 42.920000 ] } }
,
{ "type": "Feature", "properties": { "Codes": "s0000283", "English Names": "Port Colborne", "Province Codes": "ON", "Latitude": 42.920000, "Longitude": -79.190000 }, "geometry": { "type": "Point", "coordinates": [ -79.190000, 42.920000 ] } }
,
{ "type": "Feature", "properties": { "Codes": "s0000284", "English Names": "Laurentides (Réserve faunique)", "Province Codes": "QC", "Latitude": 47.750000, "Longitude": -71.250000 }, "geometry": { "type": "Point", "coordinates": [ -71.250000, 47.750000 ] } }
,
{ "type": "Feature", "properties": { "Codes": "s0000285", "English Names": "Point Lepreau", "Province Codes": "NB", "Latitude": 45.070000, "Longitude": -66.450000 }, "geometry": { "type": "Point", "coordinates": [ -66.450000, 45.070000 ] } }
,
{ "type": "Feature", "properties": { "Codes": "s0000286", "English Names": "Esquimalt", "Province Codes": "BC", "Latitude": 48.450000, "Longitude": -123.420000 }, "geometry": { "type": "Point", "coordinates": [ -123.420000, 48.450000 ] } }
,
{ "type": "Feature", "properties": { "Codes": "s0000287", "English Names": "Parent", "Province Codes": "QC", "Latitude": 47.920000, "Longitude": -74.620000 }, "geometry": { "type": "Point", "coordinates": [ -74.620000, 47.920000 ] } }
,
{ "type": "Feature", "properties": { "Codes": "s0000288", "English Names": "Gouin (Réservoir)", "Province Codes": "QC", "Latitude": 48.630000, "Longitude": -74.900000 }, "geometry": { "type": "Point", "coordinates": [ -74.900000, 48.630000 ] } }
,
{ "type": "Feature", "properties": { "Codes": "s0000289", "English Names": "Pilot Mound", "Province Codes": "MB", "Latitude": 49.200000, "Longitude": -98.890000 }, "geometry": { "type": "Point", "coordinates": [ -98.890000, 49.200000 ] } }
,
{ "type": "Feature", "properties": { "Codes": "s0000290", "English Names": "Terrebonne", "Province Codes": "QC", "Latitude": 45.700000, "Longitude": -73.630000 }, "geometry": { "type": "Point", "coordinates": [ -73.630000, 45.700000 ] } }
,
{ "type": "Feature", "properties": { "Codes": "s0000291", "English Names": "Princeton", "Province Codes": "BC", "Latitude": 49.460000, "Longitude": -120.510000 }, "geometry": { "type": "Point", "coordinates": [ -120.510000, 49.460000 ] } }
,
{ "type": "Feature", "properties": { "Codes": "s0000292", "English Names": "Puntzi Mountain", "Province Codes": "BC", "Latitude": 52.170000, "Longitude": -124.200000 }, "geometry": { "type": "Point", "coordinates": [ -124.200000, 52.170000 ] } }
,
{ "type": "Feature", "properties": { "Codes": "s0000293", "English Names": "Burns Lake", "Province Codes": "BC", "Latitude": 54.230000, "Longitude": -125.750000 }, "geometry": { "type": "Point", "coordinates": [ -125.750000, 54.230000 ] } }
,
{ "type": "Feature", "properties": { "Codes": "s0000294", "English Names": "Port Alberni", "Province Codes": "BC", "Latitude": 49.240000, "Longitude": -124.800000 }, "geometry": { "type": "Point", "coordinates": [ -124.800000, 49.240000 ] } }
,
{ "type": "Feature", "properties": { "Codes": "s0000295", "English Names": "Tadoussac", "Province Codes": "QC", "Latitude": 48.150000, "Longitude": -69.720000 }, "geometry": { "type": "Point", "coordinates": [ -69.720000, 48.150000 ] } }
,
{ "type": "Feature", "properties": { "Codes": "s0000296", "English Names": "Coaticook", "Province Codes": "QC", "Latitude": 45.130000, "Longitude": -71.800000 }, "geometry": { "type": "Point", "coordinates": [ -71.800000, 45.130000 ] } }
,
{ "type": "Feature", "properties": { "Codes": "s0000297", "English Names": "Lacombe", "Province Codes": "AB", "Latitude": 52.460000, "Longitude": -113.730000 }, "geometry": { "type": "Point", "coordinates": [ -113.730000, 52.460000 ] } }
,
{ "type": "Feature", "properties": { "Codes": "s0000298", "English Names": "Cape Race", "Province Codes": "NL", "Latitude": 46.660000, "Longitude": -53.070000 }, "geometry": { "type": "Point", "coordinates": [ -53.070000, 46.660000 ] } }
,
{ "type": "Feature", "properties": { "Codes": "s0000299", "English Names": "Red Earth Creek", "Province Codes": "AB", "Latitude": 56.540000, "Longitude": -115.290000 }, "geometry": { "type": "Point", "coordinates": [ -115.290000, 56.540000 ] } }
,
{ "type": "Feature", "properties": { "Codes": "s0000300", "English Names": "Rosetown", "Province Codes": "SK", "Latitude": 51.550000, "Longitude": -107.990000 }, "geometry": { "type": "Point", "coordinates": [ -107.990000, 51.550000 ] } }
,
{ "type": "Feature", "properties": { "Codes": "s0000301", "English Names": "Bancroft", "Province Codes": "ON", "Latitude": 45.060000, "Longitude": -77.760000 }, "geometry": { "type": "Point", "coordinates": [ -77.760000, 45.060000 ] } }
,
{ "type": "Feature", "properties": { "Codes": "s0000302", "English Names": "Barry's Bay", "Province Codes": "ON", "Latitude": 45.490000, "Longitude": -77.680000 }, "geometry": { "type": "Point", "coordinates": [ -77.680000, 45.490000 ] } }
,
{ "type": "Feature", "properties": { "Codes": "s0000303", "English Names": "Haliburton", "Province Codes": "ON", "Latitude": 45.050000, "Longitude": -78.510000 }, "geometry": { "type": "Point", "coordinates": [ -78.510000, 45.050000 ] } }
,
{ "type": "Feature", "properties": { "Codes": "s0000304", "English Names": "Apsley", "Province Codes": "ON", "Latitude": 44.760000, "Longitude": -78.090000 }, "geometry": { "type": "Point", "coordinates": [ -78.090000, 44.760000 ] } }
,
{ "type": "Feature", "properties": { "Codes": "s0000305", "English Names": "Kaladar", "Province Codes": "ON", "Latitude": 44.650000, "Longitude": -77.120000 }, "geometry": { "type": "Point", "coordinates": [ -77.120000, 44.650000 ] } }
,
{ "type": "Feature", "properties": { "Codes": "s0000306", "English Names": "Rocky Mountain House", "Province Codes": "AB", "Latitude": 52.370000, "Longitude": -114.920000 }, "geometry": { "type": "Point", "coordinates": [ -114.920000, 52.370000 ] } }
,
{ "type": "Feature", "properties": { "Codes": "s0000307", "English Names": "St. Peter's", "Province Codes": "NS", "Latitude": 45.660000, "Longitude": -60.880000 }, "geometry": { "type": "Point", "coordinates": [ -60.880000, 45.660000 ] } }
,
{ "type": "Feature", "properties": { "Codes": "s0000308", "English Names": "Hart Island", "Province Codes": "NS", "Latitude": 45.350000, "Longitude": -60.980000 }, "geometry": { "type": "Point", "coordinates": [ -60.980000, 45.350000 ] } }
,
{ "type": "Feature", "properties": { "Codes": "s0000309", "English Names": "Rock River", "Province Codes": "YT", "Latitude": 66.980000, "Longitude": -136.220000 }, "geometry": { "type": "Point", "coordinates": [ -136.220000, 66.980000 ] } }
,
{ "type": "Feature", "properties": { "Codes": "s0000310", "English Names": "Crowsnest", "Province Codes": "AB", "Latitude": 49.630000, "Longitude": -114.690000 }, "geometry": { "type": "Point", "coordinates": [ -114.690000, 49.630000 ] } }
,
{ "type": "Feature", "properties": { "Codes": "s0000311", "English Names": "Camrose", "Province Codes": "AB", "Latitude": 53.020000, "Longitude": -112.820000 }, "geometry": { "type": "Point", "coordinates": [ -112.820000, 53.020000 ] } }
,
{ "type": "Feature", "properties": { "Codes": "s0000312", "English Names": "Wetaskiwin", "Province Codes": "AB", "Latitude": 52.970000, "Longitude": -113.380000 }, "geometry": { "type": "Point", "coordinates": [ -113.380000, 52.970000 ] } }
,
{ "type": "Feature", "properties": { "Codes": "s0000313", "English Names": "Milk River", "Province Codes": "AB", "Latitude": 49.150000, "Longitude": -112.090000 }, "geometry": { "type": "Point", "coordinates": [ -112.090000, 49.150000 ] } }
,
{ "type": "Feature", "properties": { "Codes": "s0000314", "English Names": "Percé", "Province Codes": "QC", "Latitude": 48.530000, "Longitude": -64.220000 }, "geometry": { "type": "Point", "coordinates": [ -64.220000, 48.530000 ] } }
,
{ "type": "Feature", "properties": { "Codes": "s0000315", "English Names": "Chandler", "Province Codes": "QC", "Latitude": 48.350000, "Longitude": -64.680000 }, "geometry": { "type": "Point", "coordinates": [ -64.680000, 48.350000 ] } }
,
{ "type": "Feature", "properties": { "Codes": "s0000316", "English Names": "Gibsons", "Province Codes": "BC", "Latitude": 49.400000, "Longitude": -123.500000 }, "geometry": { "type": "Point", "coordinates": [ -123.500000, 49.400000 ] } }
,
{ "type": "Feature", "properties": { "Codes": "s0000317", "English Names": "Sechelt", "Province Codes": "BC", "Latitude": 49.470000, "Longitude": -123.770000 }, "geometry": { "type": "Point", "coordinates": [ -123.770000, 49.470000 ] } }
,
{ "type": "Feature", "properties": { "Codes": "s0000318", "English Names": "Halifax", "Province Codes": "NS", "Latitude": 44.870000, "Longitude": -63.720000 }, "geometry": { "type": "Point", "coordinates": [ -63.720000, 44.870000 ] } }
,
{ "type": "Feature", "properties": { "Codes": "s0000319", "English Names": "Grande-Vallée", "Province Codes": "QC", "Latitude": 49.220000, "Longitude": -65.130000 }, "geometry": { "type": "Point", "coordinates": [ -65.130000, 49.220000 ] } }
,
{ "type": "Feature", "properties": { "Codes": "s0000320", "English Names": "Cap Chat", "Province Codes": "QC", "Latitude": 49.100000, "Longitude": -66.680000 }, "geometry": { "type": "Point", "coordinates": [ -66.680000, 49.100000 ] } }
,
{ "type": "Feature", "properties": { "Codes": "s0000321", "English Names": "Gaspésie (Parc national)", "Province Codes": "QC", "Latitude": 48.930000, "Longitude": -66.280000 }, "geometry": { "type": "Point", "coordinates": [ -66.280000, 48.930000 ] } }
,
{ "type": "Feature", "properties": { "Codes": "s0000322", "English Names": "Sainte-Anne-Des-Monts", "Province Codes": "QC", "Latitude": 49.130000, "Longitude": -66.500000 }, "geometry": { "type": "Point", "coordinates": [ -66.500000, 49.130000 ] } }
,
{ "type": "Feature", "properties": { "Codes": "s0000323", "English Names": "Squamish", "Province Codes": "BC", "Latitude": 49.750000, "Longitude": -123.130000 }, "geometry": { "type": "Point", "coordinates": [ -123.130000, 49.750000 ] } }
,
{ "type": "Feature", "properties": { "Codes": "s0000324", "English Names": "Salmon Arm", "Province Codes": "BC", "Latitude": 50.700000, "Longitude": -119.270000 }, "geometry": { "type": "Point", "coordinates": [ -119.270000, 50.700000 ] } }
,
{ "type": "Feature", "properties": { "Codes": "s0000325", "English Names": "Stratford", "Province Codes": "ON", "Latitude": 43.370000, "Longitude": -80.980000 }, "geometry": { "type": "Point", "coordinates": [ -80.980000, 43.370000 ] } }
,
{ "type": "Feature", "properties": { "Codes": "s0000326", "English Names": "London", "Province Codes": "ON", "Latitude": 42.970000, "Longitude": -81.230000 }, "geometry": { "type": "Point", "coordinates": [ -81.230000, 42.970000 ] } }
,
{ "type": "Feature", "properties": { "Codes": "s0000327", "English Names": "Woodstock", "Province Codes": "ON", "Latitude": 43.140000, "Longitude": -80.740000 }, "geometry": { "type": "Point", "coordinates": [ -80.740000, 43.140000 ] } }
,
{ "type": "Feature", "properties": { "Codes": "s0000328", "English Names": "Strathroy", "Province Codes": "ON", "Latitude": 42.960000, "Longitude": -81.620000 }, "geometry": { "type": "Point", "coordinates": [ -81.620000, 42.960000 ] } }
,
{ "type": "Feature", "properties": { "Codes": "s0000329", "English Names": "St. Thomas", "Province Codes": "ON", "Latitude": 42.780000, "Longitude": -81.190000 }, "geometry": { "type": "Point", "coordinates": [ -81.190000, 42.780000 ] } }
,
{ "type": "Feature", "properties": { "Codes": "s0000330", "English Names": "Spiritwood", "Province Codes": "SK", "Latitude": 53.370000, "Longitude": -107.520000 }, "geometry": { "type": "Point", "coordinates": [ -107.520000, 53.370000 ] } }
,
{ "type": "Feature", "properties": { "Codes": "s0000331", "English Names": "Saint Andrews", "Province Codes": "NB", "Latitude": 45.080000, "Longitude": -67.060000 }, "geometry": { "type": "Point", "coordinates": [ -67.060000, 45.080000 ] } }
,
{ "type": "Feature", "properties": { "Codes": "s0000332", "English Names": "St. Stephen", "Province Codes": "NB", "Latitude": 45.220000, "Longitude": -67.330000 }, "geometry": { "type": "Point", "coordinates": [ -67.330000, 45.220000 ] } }
,
{ "type": "Feature", "properties": { "Codes": "s0000333", "English Names": "La Malbaie", "Province Codes": "QC", "Latitude": 47.650000, "Longitude": -70.150000 }, "geometry": { "type": "Point", "coordinates": [ -70.150000, 47.650000 ] } }
,
{ "type": "Feature", "properties": { "Codes": "s0000334", "English Names": "Montmagny", "Province Codes": "QC", "Latitude": 46.980000, "Longitude": -70.550000 }, "geometry": { "type": "Point", "coordinates": [ -70.550000, 46.980000 ] } }
,
{ "type": "Feature", "properties": { "Codes": "s0000335", "English Names": "Kamouraska", "Province Codes": "QC", "Latitude": 47.570000, "Longitude": -69.870000 }, "geometry": { "type": "Point", "coordinates": [ -69.870000, 47.570000 ] } }
,
{ "type": "Feature", "properties": { "Codes": "s0000336", "English Names": "L'Islet", "Province Codes": "QC", "Latitude": 47.100000, "Longitude": -70.350000 }, "geometry": { "type": "Point", "coordinates": [ -70.350000, 47.100000 ] } }
,
{ "type": "Feature", "properties": { "Codes": "s0000337", "English Names": "Sprague", "Province Codes": "MB", "Latitude": 49.040000, "Longitude": -95.640000 }, "geometry": { "type": "Point", "coordinates": [ -95.640000, 49.040000 ] } }
,
{ "type": "Feature", "properties": { "Codes": "s0000338", "English Names": "Sachs Harbour", "Province Codes": "NT", "Latitude": 71.980000, "Longitude": -125.240000 }, "geometry": { "type": "Point", "coordinates": [ -125.240000, 71.980000 ] } }
,
{ "type": "Feature", "properties": { "Codes": "s0000339", "English Names": "Fisher Branch", "Province Codes": "MB", "Latitude": 51.080000, "Longitude": -97.620000 }, "geometry": { "type": "Point", "coordinates": [ -97.620000, 51.080000 ] } }
,
{ "type": "Feature", "properties": { "Codes": "s0000340", "English Names": "Sambaa K'e", "Province Codes": "NT", "Latitude": 60.430000, "Longitude": -121.250000 }, "geometry": { "type": "Point", "coordinates": [ -121.250000, 60.430000 ] } }
,
{ "type": "Feature", "properties": { "Codes": "s0000341", "English Names": "Tetsa River (Provincial Park)", "Province Codes": "BC", "Latitude": 58.650000, "Longitude": -123.950000 }, "geometry": { "type": "Point", "coordinates": [ -123.950000, 58.650000 ] } }
,
{ "type": "Feature", "properties": { "Codes": "s0000342", "English Names": "Baie-Saint-Paul", "Province Codes": "QC", "Latitude": 47.450000, "Longitude": -70.500000 }, "geometry": { "type": "Point", "coordinates": [ -70.500000, 47.450000 ] } }
,
{ "type": "Feature", "properties": { "Codes": "s0000343", "English Names": "Biggar", "Province Codes": "SK", "Latitude": 52.060000, "Longitude": -107.980000 }, "geometry": { "type": "Point", "coordinates": [ -107.980000, 52.060000 ] } }
,
{ "type": "Feature", "properties": { "Codes": "s0000344", "English Names": "Scott", "Province Codes": "SK", "Latitude": 52.370000, "Longitude": -108.830000 }, "geometry": { "type": "Point", "coordinates": [ -108.830000, 52.370000 ] } }
,
{ "type": "Feature", "properties": { "Codes": "s0000345", "English Names": "Magog", "Province Codes": "QC", "Latitude": 45.270000, "Longitude": -72.150000 }, "geometry": { "type": "Point", "coordinates": [ -72.150000, 45.270000 ] } }
,
{ "type": "Feature", "properties": { "Codes": "s0000346", "English Names": "Trois-Rivières", "Province Codes": "QC", "Latitude": 46.350000, "Longitude": -72.580000 }, "geometry": { "type": "Point", "coordinates": [ -72.580000, 46.350000 ] } }
,
{ "type": "Feature", "properties": { "Codes": "s0000347", "English Names": "Bécancour", "Province Codes": "QC", "Latitude": 46.330000, "Longitude": -72.430000 }, "geometry": { "type": "Point", "coordinates": [ -72.430000, 46.330000 ] } }
,
{ "type": "Feature", "properties": { "Codes": "s0000348", "English Names": "Louiseville", "Province Codes": "QC", "Latitude": 46.250000, "Longitude": -72.950000 }, "geometry": { "type": "Point", "coordinates": [ -72.950000, 46.250000 ] } }
,
{ "type": "Feature", "properties": { "Codes": "s0000349", "English Names": "Faro", "Province Codes": "YT", "Latitude": 62.230000, "Longitude": -133.360000 }, "geometry": { "type": "Point", "coordinates": [ -133.360000, 62.230000 ] } }
,
{ "type": "Feature", "properties": { "Codes": "s0000350", "English Names": "Ross River", "Province Codes": "YT", "Latitude": 61.980000, "Longitude": -132.430000 }, "geometry": { "type": "Point", "coordinates": [ -132.430000, 61.980000 ] } }
,
{ "type": "Feature", "properties": { "Codes": "s0000351", "English Names": "Summerland", "Province Codes": "BC", "Latitude": 49.600000, "Longitude": -119.670000 }, "geometry": { "type": "Point", "coordinates": [ -119.670000, 49.600000 ] } }
,
{ "type": "Feature", "properties": { "Codes": "s0000352", "English Names": "Shoal Lake", "Province Codes": "MB", "Latitude": 50.440000, "Longitude": -100.590000 }, "geometry": { "type": "Point", "coordinates": [ -100.590000, 50.440000 ] } }
,
{ "type": "Feature", "properties": { "Codes": "s0000353", "English Names": "Rouyn-Noranda", "Province Codes": "QC", "Latitude": 48.230000, "Longitude": -79.020000 }, "geometry": { "type": "Point", "coordinates": [ -79.020000, 48.230000 ] } }
,
{ "type": "Feature", "properties": { "Codes": "s0000354", "English Names": "La Sarre", "Province Codes": "QC", "Latitude": 48.800000, "Longitude": -79.200000 }, "geometry": { "type": "Point", "coordinates": [ -79.200000, 48.800000 ] } }
,
{ "type": "Feature", "properties": { "Codes": "s0000355", "English Names": "Swift Current", "Province Codes": "SK", "Latitude": 50.290000, "Longitude": -107.790000 }, "geometry": { "type": "Point", "coordinates": [ -107.790000, 50.290000 ] } }
,
{ "type": "Feature", "properties": { "Codes": "s0000356", "English Names": "Vegreville", "Province Codes": "AB", "Latitude": 53.500000, "Longitude": -112.050000 }, "geometry": { "type": "Point", "coordinates": [ -112.050000, 53.500000 ] } }
,
{ "type": "Feature", "properties": { "Codes": "s0000357", "English Names": "Val Marie", "Province Codes": "SK", "Latitude": 49.250000, "Longitude": -107.730000 }, "geometry": { "type": "Point", "coordinates": [ -107.730000, 49.250000 ] } }
,
{ "type": "Feature", "properties": { "Codes": "s0000358", "English Names": "Vauxhall", "Province Codes": "AB", "Latitude": 50.070000, "Longitude": -112.110000 }, "geometry": { "type": "Point", "coordinates": [ -112.110000, 50.070000 ] } }
,
{ "type": "Feature", "properties": { "Codes": "s0000359", "English Names": "Taber", "Province Codes": "AB", "Latitude": 49.780000, "Longitude": -112.150000 }, "geometry": { "type": "Point", "coordinates": [ -112.150000, 49.780000 ] } }
,
{ "type": "Feature", "properties": { "Codes": "s0000360", "English Names": "Cypress Hills (Provincial Park)", "Province Codes": "SK", "Latitude": 49.630000, "Longitude": -109.750000 }, "geometry": { "type": "Point", "coordinates": [ -109.750000, 49.630000 ] } }
,
{ "type": "Feature", "properties": { "Codes": "s0000361", "English Names": "Deux-Montagnes", "Province Codes": "QC", "Latitude": 45.530000, "Longitude": -73.880000 }, "geometry": { "type": "Point", "coordinates": [ -73.880000, 45.530000 ] } }
,
{ "type": "Feature", "properties": { "Codes": "s0000362", "English Names": "Vaudreuil-Dorion", "Province Codes": "QC", "Latitude": 45.400000, "Longitude": -74.030000 }, "geometry": { "type": "Point", "coordinates": [ -74.030000, 45.400000 ] } }
,
{ "type": "Feature", "properties": { "Codes": "s0000363", "English Names": "Pincourt", "Province Codes": "QC", "Latitude": 45.380000, "Longitude": -73.980000 }, "geometry": { "type": "Point", "coordinates": [ -73.980000, 45.380000 ] } }
,
{ "type": "Feature", "properties": { "Codes": "s0000364", "English Names": "Digby", "Province Codes": "NS", "Latitude": 44.620000, "Longitude": -65.760000 }, "geometry": { "type": "Point", "coordinates": [ -65.760000, 44.620000 ] } }
,
{ "type": "Feature", "properties": { "Codes": "s0000365", "English Names": "Brier Island", "Province Codes": "NS", "Latitude": 44.270000, "Longitude": -66.370000 }, "geometry": { "type": "Point", "coordinates": [ -66.370000, 44.270000 ] } }
,
{ "type": "Feature", "properties": { "Codes": "s0000366", "English Names": "Yellowknife", "Province Codes": "NT", "Latitude": 62.460000, "Longitude": -114.350000 }, "geometry": { "type": "Point", "coordinates": [ -114.350000, 62.460000 ] } }
,
{ "type": "Feature", "properties": { "Codes": "s0000367", "English Names": "Oakville", "Province Codes": "ON", "Latitude": 43.460000, "Longitude": -79.710000 }, "geometry": { "type": "Point", "coordinates": [ -79.710000, 43.460000 ] } }
,
{ "type": "Feature", "properties": { "Codes": "s0000368", "English Names": "Burlington", "Province Codes": "ON", "Latitude": 43.370000, "Longitude": -79.810000 }, "geometry": { "type": "Point", "coordinates": [ -79.810000, 43.370000 ] } }
,
{ "type": "Feature", "properties": { "Codes": "s0000369", "English Names": "Collins Bay", "Province Codes": "SK", "Latitude": 58.280000, "Longitude": -103.630000 }, "geometry": { "type": "Point", "coordinates": [ -103.630000, 58.280000 ] } }
,
{ "type": "Feature", "properties": { "Codes": "s0000370", "English Names": "Western Head", "Province Codes": "NS", "Latitude": 43.990000, "Longitude": -64.670000 }, "geometry": { "type": "Point", "coordinates": [ -64.670000, 43.990000 ] } }
,
{ "type": "Feature", "properties": { "Codes": "s0000371", "English Names": "Liverpool", "Province Codes": "NS", "Latitude": 44.040000, "Longitude": -64.720000 }, "geometry": { "type": "Point", "coordinates": [ -64.720000, 44.040000 ] } }
,
{ "type": "Feature", "properties": { "Codes": "s0000372", "English Names": "Weyburn", "Province Codes": "SK", "Latitude": 49.660000, "Longitude": -103.850000 }, "geometry": { "type": "Point", "coordinates": [ -103.850000, 49.660000 ] } }
,
{ "type": "Feature", "properties": { "Codes": "s0000373", "English Names": "White Rock", "Province Codes": "BC", "Latitude": 49.020000, "Longitude": -122.800000 }, "geometry": { "type": "Point", "coordinates": [ -122.800000, 49.020000 ] } }
,
{ "type": "Feature", "properties": { "Codes": "s0000374", "English Names": "Peawanuck", "Province Codes": "ON", "Latitude": 55.020000, "Longitude": -85.420000 }, "geometry": { "type": "Point", "coordinates": [ -85.420000, 55.020000 ] } }
,
{ "type": "Feature", "properties": { "Codes": "s0000375", "English Names": "Wasagaming", "Province Codes": "MB", "Latitude": 50.660000, "Longitude": -99.970000 }, "geometry": { "type": "Point", "coordinates": [ -99.970000, 50.660000 ] } }
,
{ "type": "Feature", "properties": { "Codes": "s0000376", "English Names": "Muncho Lake", "Province Codes": "BC", "Latitude": 58.930000, "Longitude": -125.770000 }, "geometry": { "type": "Point", "coordinates": [ -125.770000, 58.930000 ] } }
,
{ "type": "Feature", "properties": { "Codes": "s0000377", "English Names": "Liard River", "Province Codes": "BC", "Latitude": 59.420000, "Longitude": -126.080000 }, "geometry": { "type": "Point", "coordinates": [ -126.080000, 59.420000 ] } }
,
{ "type": "Feature", "properties": { "Codes": "s0000378", "English Names": "Poplar River", "Province Codes": "MB", "Latitude": 52.990000, "Longitude": -97.280000 }, "geometry": { "type": "Point", "coordinates": [ -97.280000, 52.990000 ] } }
,
{ "type": "Feature", "properties": { "Codes": "s0000379", "English Names": "Bow Valley (Provincial Park)", "Province Codes": "AB", "Latitude": 51.080000, "Longitude": -115.070000 }, "geometry": { "type": "Point", "coordinates": [ -115.070000, 51.080000 ] } }
,
{ "type": "Feature", "properties": { "Codes": "s0000380", "English Names": "Roblin", "Province Codes": "MB", "Latitude": 51.230000, "Longitude": -101.360000 }, "geometry": { "type": "Point", "coordinates": [ -101.360000, 51.230000 ] } }
,
{ "type": "Feature", "properties": { "Codes": "s0000381", "English Names": "Last Mountain Lake (Sanctuary)", "Province Codes": "SK", "Latitude": 51.370000, "Longitude": -105.230000 }, "geometry": { "type": "Point", "coordinates": [ -105.230000, 51.370000 ] } }
,
{ "type": "Feature", "properties": { "Codes": "s0000382", "English Names": "Bow Island", "Province Codes": "AB", "Latitude": 49.870000, "Longitude": -111.380000 }, "geometry": { "type": "Point", "coordinates": [ -111.380000, 49.870000 ] } }
,
{ "type": "Feature", "properties": { "Codes": "s0000383", "English Names": "High River", "Province Codes": "AB", "Latitude": 50.580000, "Longitude": -113.870000 }, "geometry": { "type": "Point", "coordinates": [ -113.870000, 50.580000 ] } }
,
{ "type": "Feature", "properties": { "Codes": "s0000384", "English Names": "Stavely", "Province Codes": "AB", "Latitude": 50.160000, "Longitude": -113.640000 }, "geometry": { "type": "Point", "coordinates": [ -113.640000, 50.160000 ] } }
,
{ "type": "Feature", "properties": { "Codes": "s0000385", "English Names": "Tracadie-Sheila", "Province Codes": "NB", "Latitude": 47.510000, "Longitude": -64.920000 }, "geometry": { "type": "Point", "coordinates": [ -64.920000, 47.510000 ] } }
,
{ "type": "Feature", "properties": { "Codes": "s0000386", "English Names": "Bas-Caraquet", "Province Codes": "NB", "Latitude": 47.800000, "Longitude": -64.830000 }, "geometry": { "type": "Point", "coordinates": [ -64.830000, 47.800000 ] } }
,
{ "type": "Feature", "properties": { "Codes": "s0000387", "English Names": "Outlook", "Province Codes": "SK", "Latitude": 51.490000, "Longitude": -107.050000 }, "geometry": { "type": "Point", "coordinates": [ -107.050000, 51.490000 ] } }
,
{ "type": "Feature", "properties": { "Codes": "s0000388", "English Names": "Gameti", "Province Codes": "NT", "Latitude": 64.120000, "Longitude": -117.350000 }, "geometry": { "type": "Point", "coordinates": [ -117.350000, 64.120000 ] } }
,
{ "type": "Feature", "properties": { "Codes": "s0000389", "English Names": "Indin River", "Province Codes": "NT", "Latitude": 64.280000, "Longitude": -115.070000 }, "geometry": { "type": "Point", "coordinates": [ -115.070000, 64.280000 ] } }
,
{ "type": "Feature", "properties": { "Codes": "s0000390", "English Names": "Victoria (University of)", "Province Codes": "BC", "Latitude": 48.460000, "Longitude": -123.300000 }, "geometry": { "type": "Point", "coordinates": [ -123.300000, 48.460000 ] } }
,
{ "type": "Feature", "properties": { "Codes": "s0000391", "English Names": "Kootenay (National Park)", "Province Codes": "BC", "Latitude": 50.950000, "Longitude": -116.030000 }, "geometry": { "type": "Point", "coordinates": [ -116.030000, 50.950000 ] } }
,
{ "type": "Feature", "properties": { "Codes": "s0000392", "English Names": "Yoho (National Park)", "Province Codes": "BC", "Latitude": 51.500000, "Longitude": -116.500000 }, "geometry": { "type": "Point", "coordinates": [ -116.500000, 51.500000 ] } }
,
{ "type": "Feature", "properties": { "Codes": "s0000393", "English Names": "Rimouski", "Province Codes": "QC", "Latitude": 48.450000, "Longitude": -68.530000 }, "geometry": { "type": "Point", "coordinates": [ -68.530000, 48.450000 ] } }
,
{ "type": "Feature", "properties": { "Codes": "s0000394", "English Names": "Iqaluit", "Province Codes": "NU", "Latitude": 63.750000, "Longitude": -68.520000 }, "geometry": { "type": "Point", "coordinates": [ -68.520000, 63.750000 ] } }
,
{ "type": "Feature", "properties": { "Codes": "s0000395", "English Names": "Gull Bay", "Province Codes": "ON", "Latitude": 49.800000, "Longitude": -89.110000 }, "geometry": { "type": "Point", "coordinates": [ -89.110000, 49.800000 ] } }
,
{ "type": "Feature", "properties": { "Codes": "s0000396", "English Names": "Rock Creek", "Province Codes": "BC", "Latitude": 49.050000, "Longitude": -119.000000 }, "geometry": { "type": "Point", "coordinates": [ -119.000000, 49.050000 ] } }
,
{ "type": "Feature", "properties": { "Codes": "s0000397", "English Names": "Osoyoos", "Province Codes": "BC", "Latitude": 49.030000, "Longitude": -119.450000 }, "geometry": { "type": "Point", "coordinates": [ -119.450000, 49.030000 ] } }
,
{ "type": "Feature", "properties": { "Codes": "s0000398", "English Names": "Chilliwack", "Province Codes": "BC", "Latitude": 49.180000, "Longitude": -121.940000 }, "geometry": { "type": "Point", "coordinates": [ -121.940000, 49.180000 ] } }
,
{ "type": "Feature", "properties": { "Codes": "s0000399", "English Names": "Agassiz", "Province Codes": "BC", "Latitude": 49.230000, "Longitude": -121.770000 }, "geometry": { "type": "Point", "coordinates": [ -121.770000, 49.230000 ] } }
,
{ "type": "Feature", "properties": { "Codes": "s0000400", "English Names": "Channel-Port aux Basques", "Province Codes": "NL", "Latitude": 47.580000, "Longitude": -59.140000 }, "geometry": { "type": "Point", "coordinates": [ -59.140000, 47.580000 ] } }
,
{ "type": "Feature", "properties": { "Codes": "s0000401", "English Names": "Carberry", "Province Codes": "MB", "Latitude": 49.870000, "Longitude": -99.360000 }, "geometry": { "type": "Point", "coordinates": [ -99.360000, 49.870000 ] } }
,
{ "type": "Feature", "properties": { "Codes": "s0000402", "English Names": "Shilo", "Province Codes": "MB", "Latitude": 49.810000, "Longitude": -99.640000 }, "geometry": { "type": "Point", "coordinates": [ -99.640000, 49.810000 ] } }
,
{ "type": "Feature", "properties": { "Codes": "s0000403", "English Names": "Canmore", "Province Codes": "AB", "Latitude": 51.080000, "Longitude": -115.370000 }, "geometry": { "type": "Point", "coordinates": [ -115.370000, 51.080000 ] } }
,
{ "type": "Feature", "properties": { "Codes": "s0000404", "English Names": "Banff", "Province Codes": "AB", "Latitude": 51.180000, "Longitude": -115.570000 }, "geometry": { "type": "Point", "coordinates": [ -115.570000, 51.180000 ] } }
,
{ "type": "Feature", "properties": { "Codes": "s0000405", "English Names": "Grand Étang", "Province Codes": "NS", "Latitude": 46.550000, "Longitude": -61.050000 }, "geometry": { "type": "Point", "coordinates": [ -61.050000, 46.550000 ] } }
,
{ "type": "Feature", "properties": { "Codes": "s0000406", "English Names": "Amqui", "Province Codes": "QC", "Latitude": 48.470000, "Longitude": -67.430000 }, "geometry": { "type": "Point", "coordinates": [ -67.430000, 48.470000 ] } }
,
{ "type": "Feature", "properties": { "Codes": "s0000407", "English Names": "Matapedia", "Province Codes": "QC", "Latitude": 47.970000, "Longitude": -66.950000 }, "geometry": { "type": "Point", "coordinates": [ -66.950000, 47.970000 ] } }
,
{ "type": "Feature", "properties": { "Codes": "s0000408", "English Names": "Vallée de la Matapédia", "Province Codes": "QC", "Latitude": 48.170000, "Longitude": -67.140000 }, "geometry": { "type": "Point", "coordinates": [ -67.140000, 48.170000 ] } }
,
{ "type": "Feature", "properties": { "Codes": "s0000409", "English Names": "Atlin", "Province Codes": "BC", "Latitude": 59.570000, "Longitude": -133.700000 }, "geometry": { "type": "Point", "coordinates": [ -133.700000, 59.570000 ] } }
,
{ "type": "Feature", "properties": { "Codes": "s0000410", "English Names": "Teslin", "Province Codes": "YT", "Latitude": 60.170000, "Longitude": -132.720000 }, "geometry": { "type": "Point", "coordinates": [ -132.720000, 60.170000 ] } }
,
{ "type": "Feature", "properties": { "Codes": "s0000411", "English Names": "Thunder Bay", "Province Codes": "ON", "Latitude": 48.400000, "Longitude": -89.270000 }, "geometry": { "type": "Point", "coordinates": [ -89.270000, 48.400000 ] } }
,
{ "type": "Feature", "properties": { "Codes": "s0000412", "English Names": "Arctic Bay", "Province Codes": "NU", "Latitude": 73.030000, "Longitude": -85.170000 }, "geometry": { "type": "Point", "coordinates": [ -85.170000, 73.030000 ] } }
,
{ "type": "Feature", "properties": { "Codes": "s0000413", "English Names": "Barrhead", "Province Codes": "AB", "Latitude": 54.120000, "Longitude": -114.400000 }, "geometry": { "type": "Point", "coordinates": [ -114.400000, 54.120000 ] } }
,
{ "type": "Feature", "properties": { "Codes": "s0000414", "English Names": "Orillia", "Province Codes": "ON", "Latitude": 44.600000, "Longitude": -79.420000 }, "geometry": { "type": "Point", "coordinates": [ -79.420000, 44.600000 ] } }
,
{ "type": "Feature", "properties": { "Codes": "s0000415", "English Names": "Barrie", "Province Codes": "ON", "Latitude": 44.370000, "Longitude": -79.680000 },